[{"id":3,"name":"Walker’s Cay","coordinates":{"x":4013,"y":1702},"angle":null,"textAnchor":"end","region":"Bahamas","countyCapitalName":"West End","county":"Grand Bahama","countyCapital":false,"shallow":true,"availableForAll":false,"brLimit":900,"portPoints":30,"portBattleStartTime":0,"portBattleType":"Small","nonCapturable":false,"conquestMarksPension":1},{"id":4,"name":"West End","coordinates":{"x":3936,"y":1946},"angle":null,"textAnchor":"end","region":"Bahamas","countyCapitalName":"West End","county":"Grand Bahama","countyCapital":true,"shallow":true,"availableForAll":false,"brLimit":900,"portPoints":30,"portBattleStartTime":17,"portBattleType":"Small","nonCapturable":false,"conquestMarksPension":1},{"id":5,"name":"Road Rocks","coordinates":{"x":4130,"y":1948},"angle":null,"textAnchor":"end","region":"Bahamas","countyCapitalName":"West End","county":"Grand Bahama","countyCapital":false,"shallow":true,"availableForAll":false,"brLimit":900,"portPoints":30,"portBattleStartTime":14,"portBattleType":"Small","nonCapturable":false,"conquestMarksPension":1},{"id":6,"name":"Turtle Cay","coordinates":{"x":4230,"y":1788},"angle":null,"textAnchor":"end","region":"Bahamas","countyCapitalName":"Marsh Harbour","county":"Abaco","countyCapital":false,"shallow":true,"availableForAll":false,"brLimit":900,"portPoints":30,"portBattleStartTime":0,"portBattleType":"Small","nonCapturable":false,"conquestMarksPension":1},{"id":7,"name":"Sandy Point","coordinates":{"x":4264,"y":2095},"angle":null,"textAnchor":"end","region":"Bahamas","countyCapitalName":"Marsh Harbour","county":"Abaco","countyCapital":false,"shallow":true,"availableForAll":false,"brLimit":900,"portPoints":30,"portBattleStartTime":0,"portBattleType":"Small","nonCapturable":false,"conquestMarksPension":1},{"id":8,"name":"Little Harbour","coordinates":{"x":4329,"y":2021},"angle":null,"textAnchor":"end","region":"Bahamas","countyCapitalName":"Marsh Harbour","county":"Abaco","countyCapital":false,"shallow":true,"availableForAll":false,"brLimit":900,"portPoints":30,"portBattleStartTime":0,"portBattleType":"Small","nonCapturable":false,"conquestMarksPension":1},{"id":9,"name":"Marsh Harbour","coordinates":{"x":4342,"y":1927},"angle":null,"textAnchor":"end","region":"Bahamas","countyCapitalName":"Marsh Harbour","county":"Abaco","countyCapital":true,"shallow":true,"availableForAll":false,"brLimit":1350,"portPoints":40,"portBattleStartTime":0,"portBattleType":"Small","nonCapturable":false,"conquestMarksPension":1},{"id":10,"name":"Bimini","coordinates":{"x":3868,"y":2218},"angle":null,"textAnchor":"end","region":"Bahamas","countyCapitalName":"Morgan's Bluff","county":"Andros","countyCapital":false,"shallow":true,"availableForAll":false,"brLimit":900,"portPoints":30,"portBattleStartTime":0,"portBattleType":"Small","nonCapturable":false,"conquestMarksPension":1},{"id":11,"name":"Mimbres","coordinates":{"x":3942,"y":2456},"angle":null,"textAnchor":"end","region":"Bahamas","countyCapitalName":"Morgan's Bluff","county":"Andros","countyCapital":false,"shallow":true,"availableForAll":false,"brLimit":900,"portPoints":30,"portBattleStartTime":14,"portBattleType":"Small","nonCapturable":false,"conquestMarksPension":1},{"id":12,"name":"Morgan’s Bluff","coordinates":{"x":4074,"y":2309},"angle":null,"textAnchor":"end","region":"Bahamas","countyCapitalName":"Morgan's Bluff","county":"Andros","countyCapital":true,"shallow":true,"availableForAll":false,"brLimit":900,"portPoints":30,"portBattleStartTime":0,"portBattleType":"Small","nonCapturable":false,"conquestMarksPension":3},{"id":13,"name":"Kemp’s Bay","coordinates":{"x":4124,"y":2413},"angle":null,"textAnchor":"end","region":"Bahamas","countyCapitalName":"Morgan's Bluff","county":"Andros","countyCapital":false,"shallow":true,"availableForAll":false,"brLimit":900,"portPoints":30,"portBattleStartTime":0,"portBattleType":"Small","nonCapturable":false,"conquestMarksPension":1},{"id":14,"name":"Nassau","coordinates":{"x":4258,"y":2342},"angle":null,"textAnchor":"end","region":"Bahamas","countyCapitalName":"Nassau","county":"New Providence","countyCapital":true,"shallow":true,"availableForAll":false,"brLimit":2900,"portPoints":55,"portBattleStartTime":9,"portBattleType":"Small","nonCapturable":false,"conquestMarksPension":1},{"id":15,"name":"Harbour Island","coordinates":{"x":4389,"y":2239},"angle":null,"textAnchor":"end","region":"Bahamas","countyCapitalName":"Nassau","county":"New Providence","countyCapital":false,"shallow":true,"availableForAll":false,"brLimit":900,"portPoints":30,"portBattleStartTime":0,"portBattleType":"Small","nonCapturable":false,"conquestMarksPension":1},{"id":16,"name":"Governor’s Harbour","coordinates":{"x":4479,"y":2315},"angle":null,"textAnchor":"end","region":"Bahamas","countyCapitalName":"Nassau","county":"New Providence","countyCapital":false,"shallow":true,"availableForAll":false,"brLimit":1350,"portPoints":40,"portBattleStartTime":8,"portBattleType":"Small","nonCapturable":false,"conquestMarksPension":1},{"id":17,"name":"Arthur’s Town","coordinates":{"x":4616,"y":2454},"angle":null,"textAnchor":"end","region":"Bahamas","countyCapitalName":"George's Town","county":"Exuma","countyCapital":false,"shallow":true,"availableForAll":false,"brLimit":900,"portPoints":30,"portBattleStartTime":0,"portBattleType":"Small","nonCapturable":false,"conquestMarksPension":1},{"id":18,"name":"George’s Town","coordinates":{"x":4571,"y":2636},"angle":null,"textAnchor":"end","region":"Bahamas","countyCapitalName":"George's Town","county":"Exuma","countyCapital":true,"shallow":true,"availableForAll":false,"brLimit":900,"portPoints":30,"portBattleStartTime":16,"portBattleType":"Small","nonCapturable":false,"conquestMarksPension":1},{"id":19,"name":"Port Howe","coordinates":{"x":4675,"y":2585},"angle":null,"textAnchor":"end","region":"Bahamas","countyCapitalName":"George's Town","county":"Exuma","countyCapital":false,"shallow":true,"availableForAll":false,"brLimit":900,"portPoints":30,"portBattleStartTime":0,"portBattleType":"Small","nonCapturable":false,"conquestMarksPension":1},{"id":20,"name":"Deadman’s Cay","coordinates":{"x":4718,"y":2732},"angle":null,"textAnchor":"end","region":"Bahamas","countyCapitalName":"George's Town","county":"Exuma","countyCapital":false,"shallow":true,"availableForAll":false,"brLimit":900,"portPoints":30,"portBattleStartTime":16,"portBattleType":"Small","nonCapturable":false,"conquestMarksPension":1},{"id":21,"name":"Ragged Cay","coordinates":{"x":4644,"y":2988},"angle":null,"textAnchor":"end","region":"Bahamas","countyCapitalName":"Pitt's Town","county":"Crooked","countyCapital":false,"shallow":true,"availableForAll":false,"brLimit":900,"portPoints":30,"portBattleStartTime":7,"portBattleType":"Small","nonCapturable":false,"conquestMarksPension":1},{"id":22,"name":"Watlings","coordinates":{"x":4860,"y":2596},"angle":null,"textAnchor":"end","region":"Bahamas","countyCapitalName":"George's Town","county":"Exuma","countyCapital":false,"shallow":true,"availableForAll":false,"brLimit":900,"portPoints":30,"portBattleStartTime":16,"portBattleType":"Small","nonCapturable":false,"conquestMarksPension":1},{"id":23,"name":"Pitt’s Town","coordinates":{"x":4907,"y":2845},"angle":null,"textAnchor":"end","region":"Bahamas","countyCapitalName":"Pitt's Town","county":"Crooked","countyCapital":true,"shallow":false,"availableForAll":false,"brLimit":5700,"portPoints":30,"portBattleStartTime":1,"portBattleType":"Large","nonCapturable":false,"conquestMarksPension":1},{"id":24,"name":"Atwoods","coordinates":{"x":5064,"y":2760},"angle":null,"textAnchor":"end","region":"Bahamas","countyCapitalName":"Pitt's Town","county":"Crooked","countyCapital":false,"shallow":false,"availableForAll":false,"brLimit":5700,"portPoints":30,"portBattleStartTime":16,"portBattleType":"Medium","nonCapturable":false,"conquestMarksPension":1},{"id":25,"name":"Salina Point","coordinates":{"x":4950,"y":2988},"angle":null,"textAnchor":"end","region":"Bahamas","countyCapitalName":"Pitt's Town","county":"Crooked","countyCapital":false,"shallow":true,"availableForAll":false,"brLimit":900,"portPoints":30,"portBattleStartTime":0,"portBattleType":"Small","nonCapturable":false,"conquestMarksPension":1},{"id":26,"name":"Mayaguana","coordinates":{"x":5202,"y":2862},"angle":null,"textAnchor":"end","region":"Bahamas","countyCapitalName":"Pitt's Town","county":"Crooked","countyCapital":false,"shallow":true,"availableForAll":false,"brLimit":900,"portPoints":30,"portBattleStartTime":2,"portBattleType":"Small","nonCapturable":false,"conquestMarksPension":1},{"id":27,"name":"Mortimer Town","coordinates":{"x":5058,"y":3272},"angle":null,"textAnchor":"end","region":"Bahamas","countyCapitalName":"Mortimer Town","county":"Inagua","countyCapital":true,"shallow":false,"availableForAll":false,"brLimit":5700,"portPoints":30,"portBattleStartTime":0,"portBattleType":"Large","nonCapturable":true,"conquestMarksPension":1},{"id":28,"name":"Islet","coordinates":{"x":5185,"y":3253},"angle":null,"textAnchor":"end","region":"Bahamas","countyCapitalName":"Mortimer Town","county":"Inagua","countyCapital":false,"shallow":true,"availableForAll":false,"brLimit":900,"portPoints":30,"portBattleStartTime":0,"portBattleType":"Small","nonCapturable":true,"conquestMarksPension":1},{"id":29,"name":"Little Inagua","coordinates":{"x":5190,"y":3134},"angle":null,"textAnchor":"end","region":"Bahamas","countyCapitalName":"Mortimer Town","county":"Inagua","countyCapital":false,"shallow":false,"availableForAll":false,"brLimit":5700,"portPoints":30,"portBattleStartTime":0,"portBattleType":"Medium","nonCapturable":true,"conquestMarksPension":1},{"id":30,"name":"Parrot Cay","coordinates":{"x":5374,"y":3060},"angle":null,"textAnchor":"end","region":"Bahamas","countyCapitalName":"Grand Turk","county":"Turks and Caicos","countyCapital":false,"shallow":false,"availableForAll":false,"brLimit":5700,"portPoints":30,"portBattleStartTime":0,"portBattleType":"Large","nonCapturable":false,"conquestMarksPension":1},{"id":31,"name":"Lorimers","coordinates":{"x":5546,"y":3034},"angle":null,"textAnchor":"end","region":"Bahamas","countyCapitalName":"Grand Turk","county":"Turks and Caicos","countyCapital":false,"shallow":false,"availableForAll":false,"brLimit":5700,"portPoints":30,"portBattleStartTime":0,"portBattleType":"Medium","nonCapturable":false,"conquestMarksPension":1},{"id":32,"name":"Blondel Cay","coordinates":{"x":5492,"y":3251},"angle":null,"textAnchor":"end","region":"Bahamas","countyCapitalName":"Grand Turk","county":"Turks and Caicos","countyCapital":false,"shallow":true,"availableForAll":false,"brLimit":900,"portPoints":30,"portBattleStartTime":0,"portBattleType":"Small","nonCapturable":false,"conquestMarksPension":1},{"id":33,"name":"Grand Turk","coordinates":{"x":5656,"y":3173},"angle":null,"textAnchor":"end","region":"Bahamas","countyCapitalName":"Grand Turk","county":"Turks and Caicos","countyCapital":true,"shallow":false,"availableForAll":false,"brLimit":10600,"portPoints":40,"portBattleStartTime":7,"portBattleType":"Large","nonCapturable":false,"conquestMarksPension":1},{"id":34,"name":"Mantua","coordinates":{"x":2703,"y":2948},"angle":null,"textAnchor":"end","region":"West Cuba","countyCapitalName":"Pinar del Río","county":"Filipina","countyCapital":false,"shallow":false,"availableForAll":true,"brLimit":10600,"portPoints":40,"portBattleStartTime":9,"portBattleType":"Medium","nonCapturable":false,"conquestMarksPension":1},{"id":35,"name":"Baja","coordinates":{"x":2790,"y":2867},"angle":null,"textAnchor":"end","region":"West Cuba","countyCapitalName":"La Habana","county":"La Habana","countyCapital":false,"shallow":false,"availableForAll":false,"brLimit":5700,"portPoints":30,"portBattleStartTime":0,"portBattleType":"Medium","nonCapturable":true,"conquestMarksPension":1},{"id":36,"name":"Bahía Honda","coordinates":{"x":2971,"y":2796},"angle":null,"textAnchor":"end","region":"West Cuba","countyCapitalName":"La Habana","county":"La Habana","countyCapital":false,"shallow":false,"availableForAll":false,"brLimit":10600,"portPoints":40,"portBattleStartTime":0,"portBattleType":"Medium","nonCapturable":true,"conquestMarksPension":1},{"id":37,"name":"Mariel","coordinates":{"x":3059,"y":2784},"angle":null,"textAnchor":"end","region":"West Cuba","countyCapitalName":"La Habana","county":"La Habana","countyCapital":false,"shallow":false,"availableForAll":false,"brLimit":5700,"portPoints":30,"portBattleStartTime":0,"portBattleType":"Medium","nonCapturable":true,"conquestMarksPension":1},{"id":38,"name":"La Habana","coordinates":{"x":3156,"y":2770},"angle":null,"textAnchor":"end","region":"West Cuba","countyCapitalName":"La Habana","county":"La Habana","countyCapital":true,"shallow":false,"availableForAll":false,"brLimit":20000,"portPoints":55,"portBattleStartTime":0,"portBattleType":"Large","nonCapturable":true,"conquestMarksPension":1},{"id":39,"name":"Matanzas","coordinates":{"x":3324,"y":2781},"angle":null,"textAnchor":"end","region":"West Cuba","countyCapitalName":"La Habana","county":"La Habana","countyCapital":false,"shallow":false,"availableForAll":false,"brLimit":20000,"portPoints":50,"portBattleStartTime":0,"portBattleType":"Medium","nonCapturable":true,"conquestMarksPension":1},{"id":40,"name":"Carahatas","coordinates":{"x":3592,"y":2810},"angle":null,"textAnchor":"end","region":"West Cuba","countyCapitalName":"Remedios","county":"Los Llanos","countyCapital":false,"shallow":true,"availableForAll":false,"brLimit":900,"portPoints":30,"portBattleStartTime":0,"portBattleType":"Small","nonCapturable":false,"conquestMarksPension":1},{"id":41,"name":"Cayo de Sal","coordinates":{"x":3709,"y":2674},"angle":null,"textAnchor":"end","region":"West Cuba","countyCapitalName":"Remedios","county":"Los Llanos","countyCapital":false,"shallow":false,"availableForAll":false,"brLimit":5700,"portPoints":30,"portBattleStartTime":6,"portBattleType":"Medium","nonCapturable":false,"conquestMarksPension":1},{"id":42,"name":"La Anguila","coordinates":{"x":3864,"y":2703},"angle":null,"textAnchor":"end","region":"West Cuba","countyCapitalName":"Remedios","county":"Los Llanos","countyCapital":false,"shallow":true,"availableForAll":false,"brLimit":900,"portPoints":30,"portBattleStartTime":12,"portBattleType":"Small","nonCapturable":false,"conquestMarksPension":1},{"id":43,"name":"Remedios","coordinates":{"x":3773,"y":2898},"angle":null,"textAnchor":"end","region":"West Cuba","countyCapitalName":"Remedios","county":"Los Llanos","countyCapital":true,"shallow":false,"availableForAll":false,"brLimit":20000,"portPoints":50,"portBattleStartTime":8,"portBattleType":"Large","nonCapturable":false,"conquestMarksPension":1},{"id":44,"name":"Cayo Romano","coordinates":{"x":4053,"y":2918},"angle":null,"textAnchor":"end","region":"West Cuba","countyCapitalName":"Remedios","county":"Los Llanos","countyCapital":false,"shallow":false,"availableForAll":false,"brLimit":5700,"portPoints":30,"portBattleStartTime":0,"portBattleType":"Medium","nonCapturable":false,"conquestMarksPension":1},{"id":45,"name":"La Guanaja","coordinates":{"x":4145,"y":3073},"angle":null,"textAnchor":"end","region":"East Cuba","countyCapitalName":"Nuevitas","county":"Nuevitas del Principe","countyCapital":false,"shallow":true,"availableForAll":false,"brLimit":1350,"portPoints":40,"portBattleStartTime":17,"portBattleType":"Small","nonCapturable":false,"conquestMarksPension":1},{"id":46,"name":"Nuevitas","coordinates":{"x":4263,"y":3156},"angle":null,"textAnchor":"end","region":"East Cuba","countyCapitalName":"Nuevitas","county":"Nuevitas del Principe","countyCapital":true,"shallow":false,"availableForAll":false,"brLimit":20000,"portPoints":50,"portBattleStartTime":17,"portBattleType":"Large","nonCapturable":false,"conquestMarksPension":1},{"id":47,"name":"Puerto del Padre","coordinates":{"x":4393,"y":3218},"angle":null,"textAnchor":"end","region":"East Cuba","countyCapitalName":"Nuevitas","county":"Nuevitas del Principe","countyCapital":false,"shallow":false,"availableForAll":false,"brLimit":5700,"portPoints":30,"portBattleStartTime":0,"portBattleType":"Medium","nonCapturable":false,"conquestMarksPension":1},{"id":48,"name":"Guibara","coordinates":{"x":4497,"y":3235},"angle":null,"textAnchor":"end","region":"East Cuba","countyCapitalName":"Baracoa","county":"Baracoa","countyCapital":false,"shallow":false,"availableForAll":false,"brLimit":5700,"portPoints":30,"portBattleStartTime":0,"portBattleType":"Large","nonCapturable":false,"conquestMarksPension":1},{"id":49,"name":"Puerto de Nipe","coordinates":{"x":4575,"y":3332},"angle":null,"textAnchor":"end","region":"East Cuba","countyCapitalName":"Baracoa","county":"Baracoa","countyCapital":false,"shallow":false,"availableForAll":false,"brLimit":10600,"portPoints":40,"portBattleStartTime":0,"portBattleType":"Medium","nonCapturable":false,"conquestMarksPension":1},{"id":50,"name":"Baracoa","coordinates":{"x":4850,"y":3418},"angle":null,"textAnchor":"end","region":"East Cuba","countyCapitalName":"Baracoa","county":"Baracoa","countyCapital":true,"shallow":false,"availableForAll":false,"brLimit":20000,"portPoints":50,"portBattleStartTime":6,"portBattleType":"Large","nonCapturable":false,"conquestMarksPension":1},{"id":51,"name":"Puerto Escondido","coordinates":{"x":4731,"y":3525},"angle":null,"textAnchor":"end","region":"East Cuba","countyCapitalName":"Santiago de Cuba","county":"Cuidad de Cuba","countyCapital":false,"shallow":false,"availableForAll":false,"brLimit":5700,"portPoints":30,"portBattleStartTime":8,"portBattleType":"Medium","nonCapturable":false,"conquestMarksPension":1},{"id":52,"name":"Santiago de Cuba","coordinates":{"x":4557,"y":3513},"angle":null,"textAnchor":"end","region":"East Cuba","countyCapitalName":"Santiago de Cuba","county":"Cuidad de Cuba","countyCapital":true,"shallow":false,"availableForAll":false,"brLimit":20000,"portPoints":55,"portBattleStartTime":0,"portBattleType":"Large","nonCapturable":false,"conquestMarksPension":3},{"id":53,"name":"Guamá Sevilla","coordinates":{"x":4442,"y":3512},"angle":null,"textAnchor":"end","region":"East Cuba","countyCapitalName":"Santiago de Cuba","county":"Cuidad de Cuba","countyCapital":false,"shallow":false,"availableForAll":false,"brLimit":5700,"portPoints":30,"portBattleStartTime":0,"portBattleType":"Medium","nonCapturable":false,"conquestMarksPension":1},{"id":54,"name":"Portillo","coordinates":{"x":4276,"y":3527},"angle":null,"textAnchor":"end","region":"East Cuba","countyCapitalName":"Santiago de Cuba","county":"Cuidad de Cuba","countyCapital":false,"shallow":false,"availableForAll":false,"brLimit":5700,"portPoints":30,"portBattleStartTime":0,"portBattleType":"Medium","nonCapturable":false,"conquestMarksPension":1},{"id":55,"name":"Manzanillo","coordinates":{"x":4283,"y":3406},"angle":null,"textAnchor":"end","region":"East Cuba","countyCapitalName":"Santiago de Cuba","county":"Cuidad de Cuba","countyCapital":false,"shallow":false,"availableForAll":false,"brLimit":5700,"portPoints":30,"portBattleStartTime":0,"portBattleType":"Medium","nonCapturable":false,"conquestMarksPension":1},{"id":56,"name":"Santa Cruz","coordinates":{"x":4092,"y":3338},"angle":null,"textAnchor":"end","region":"West Cuba","countyCapitalName":"Trinidad","county":"Quatro Villas","countyCapital":false,"shallow":false,"availableForAll":false,"brLimit":5700,"portPoints":30,"portBattleStartTime":0,"portBattleType":"Large","nonCapturable":false,"conquestMarksPension":1},{"id":57,"name":"Santa María","coordinates":{"x":3964,"y":3169},"angle":null,"textAnchor":"end","region":"West Cuba","countyCapitalName":"Trinidad","county":"Quatro Villas","countyCapital":false,"shallow":false,"availableForAll":false,"brLimit":5700,"portPoints":30,"portBattleStartTime":0,"portBattleType":"Medium","nonCapturable":false,"conquestMarksPension":1},{"id":58,"name":"Sancti Spíritus","coordinates":{"x":3763,"y":3117},"angle":null,"textAnchor":"end","region":"West Cuba","countyCapitalName":"Trinidad","county":"Quatro Villas","countyCapital":false,"shallow":false,"availableForAll":false,"brLimit":10600,"portPoints":40,"portBattleStartTime":0,"portBattleType":"Medium","nonCapturable":false,"conquestMarksPension":1},{"id":59,"name":"Trinidad","coordinates":{"x":3666,"y":3091},"angle":null,"textAnchor":"end","region":"West Cuba","countyCapitalName":"Trinidad","county":"Quatro Villas","countyCapital":true,"shallow":false,"availableForAll":false,"brLimit":20000,"portPoints":50,"portBattleStartTime":0,"portBattleType":"Large","nonCapturable":false,"conquestMarksPension":1},{"id":60,"name":"Jagua","coordinates":{"x":3564,"y":2993},"angle":null,"textAnchor":"end","region":"West Cuba","countyCapitalName":"Trinidad","county":"Quatro Villas","countyCapital":false,"shallow":false,"availableForAll":false,"brLimit":5700,"portPoints":30,"portBattleStartTime":15,"portBattleType":"Large","nonCapturable":false,"conquestMarksPension":1},{"id":61,"name":"Cochinos","coordinates":{"x":3394,"y":2963},"angle":null,"textAnchor":"end","region":"West Cuba","countyCapitalName":"Trinidad","county":"Quatro Villas","countyCapital":false,"shallow":true,"availableForAll":false,"brLimit":900,"portPoints":30,"portBattleStartTime":9,"portBattleType":"Small","nonCapturable":false,"conquestMarksPension":1},{"id":62,"name":"San Lazaro","coordinates":{"x":3251,"y":2969},"angle":null,"textAnchor":"end","region":"West Cuba","countyCapitalName":"Pinar del Río","county":"Filipina","countyCapital":false,"shallow":false,"availableForAll":false,"brLimit":5700,"portPoints":30,"portBattleStartTime":10,"portBattleType":"Medium","nonCapturable":false,"conquestMarksPension":1},{"id":63,"name":"Batabanó","coordinates":{"x":3156,"y":2868},"angle":null,"textAnchor":"end","region":"West Cuba","countyCapitalName":"Pinar del Río","county":"Filipina","countyCapital":false,"shallow":false,"availableForAll":false,"brLimit":20000,"portPoints":50,"portBattleStartTime":0,"portBattleType":"Large","nonCapturable":false,"conquestMarksPension":1},{"id":64,"name":"Robras","coordinates":{"x":2977,"y":2941},"angle":null,"textAnchor":"end","region":"West Cuba","countyCapitalName":"Pinar del Río","county":"Filipina","countyCapital":false,"shallow":false,"availableForAll":false,"brLimit":5700,"portPoints":30,"portBattleStartTime":0,"portBattleType":"Medium","nonCapturable":false,"conquestMarksPension":1},{"id":65,"name":"Pinar del Río","coordinates":{"x":2813,"y":2988},"angle":null,"textAnchor":"end","region":"West Cuba","countyCapitalName":"Pinar del Río","county":"Filipina","countyCapital":true,"shallow":false,"availableForAll":false,"brLimit":10600,"portPoints":40,"portBattleStartTime":0,"portBattleType":"Large","nonCapturable":false,"conquestMarksPension":1},{"id":66,"name":"Corrientes","coordinates":{"x":2678,"y":3046},"angle":null,"textAnchor":"end","region":"West Cuba","countyCapitalName":"Pinar del Río","county":"Filipina","countyCapital":false,"shallow":false,"availableForAll":false,"brLimit":5700,"portPoints":30,"portBattleStartTime":8,"portBattleType":"Medium","nonCapturable":false,"conquestMarksPension":1},{"id":67,"name":"Barcos","coordinates":{"x":3060,"y":3059},"angle":null,"textAnchor":"end","region":"West Cuba","countyCapitalName":"Santa Fe","county":"Isla de Pinos","countyCapital":false,"shallow":true,"availableForAll":false,"brLimit":900,"portPoints":30,"portBattleStartTime":0,"portBattleType":"Small","nonCapturable":false,"conquestMarksPension":1},{"id":68,"name":"Santa Fe","coordinates":{"x":3192,"y":3053},"angle":null,"textAnchor":"end","region":"West Cuba","countyCapitalName":"Santa Fe","county":"Isla de Pinos","countyCapital":true,"shallow":true,"availableForAll":false,"brLimit":900,"portPoints":30,"portBattleStartTime":8,"portBattleType":"Small","nonCapturable":false,"conquestMarksPension":1},{"id":69,"name":"Daguilla","coordinates":{"x":3232,"y":3122},"angle":null,"textAnchor":"end","region":"West Cuba","countyCapitalName":"Santa Fe","county":"Isla de Pinos","countyCapital":false,"shallow":true,"availableForAll":false,"brLimit":900,"portPoints":30,"portBattleStartTime":14,"portBattleType":"Small","nonCapturable":false,"conquestMarksPension":1},{"id":70,"name":"Cocodrilo","coordinates":{"x":3097,"y":3177},"angle":null,"textAnchor":"end","region":"West Cuba","countyCapitalName":"Santa Fe","county":"Isla de Pinos","countyCapital":false,"shallow":true,"availableForAll":false,"brLimit":900,"portPoints":30,"portBattleStartTime":4,"portBattleType":"Small","nonCapturable":false,"conquestMarksPension":1},{"id":71,"name":"Siguanea","coordinates":{"x":3073,"y":3116},"angle":null,"textAnchor":"end","region":"West Cuba","countyCapitalName":"Santa Fe","county":"Isla de Pinos","countyCapital":false,"shallow":true,"availableForAll":false,"brLimit":900,"portPoints":30,"portBattleStartTime":0,"portBattleType":"Small","nonCapturable":false,"conquestMarksPension":1},{"id":72,"name":"George Town","coordinates":{"x":3431,"y":3645},"angle":null,"textAnchor":"end","region":"Jamaica","countyCapitalName":"George Town","county":"Caymans","countyCapital":true,"shallow":false,"availableForAll":false,"brLimit":5700,"portPoints":30,"portBattleStartTime":9,"portBattleType":"Large","nonCapturable":false,"conquestMarksPension":1},{"id":73,"name":"Little Cayman","coordinates":{"x":3680,"y":3565},"angle":null,"textAnchor":"end","region":"Jamaica","countyCapitalName":"George Town","county":"Caymans","countyCapital":false,"shallow":false,"availableForAll":false,"brLimit":5700,"portPoints":30,"portBattleStartTime":0,"portBattleType":"Medium","nonCapturable":false,"conquestMarksPension":1},{"id":74,"name":"Cayman Brac","coordinates":{"x":3787,"y":3537},"angle":null,"textAnchor":"end","region":"Jamaica","countyCapitalName":"George Town","county":"Caymans","countyCapital":false,"shallow":false,"availableForAll":false,"brLimit":5700,"portPoints":30,"portBattleStartTime":0,"portBattleType":"Medium","nonCapturable":false,"conquestMarksPension":1},{"id":75,"name":"Montego Bay","coordinates":{"x":4059,"y":3875},"angle":null,"textAnchor":"end","region":"Jamaica","countyCapitalName":"Savanna la Mar","county":"Cornwall","countyCapital":false,"shallow":false,"availableForAll":false,"brLimit":20000,"portPoints":50,"portBattleStartTime":0,"portBattleType":"Medium","nonCapturable":true,"conquestMarksPension":1},{"id":76,"name":"Saint Ann","coordinates":{"x":4225,"y":3883},"angle":null,"textAnchor":"end","region":"Jamaica","countyCapitalName":"Savanna la Mar","county":"Cornwall","countyCapital":false,"shallow":false,"availableForAll":false,"brLimit":20000,"portPoints":50,"portBattleStartTime":0,"portBattleType":"Medium","nonCapturable":true,"conquestMarksPension":1},{"id":77,"name":"Port Antonio","coordinates":{"x":4372,"y":3934},"angle":null,"textAnchor":"end","region":"Jamaica","countyCapitalName":"Kingston / Port Royal","county":"Surrey","countyCapital":false,"shallow":false,"availableForAll":false,"brLimit":10600,"portPoints":40,"portBattleStartTime":0,"portBattleType":"Medium","nonCapturable":true,"conquestMarksPension":1},{"id":78,"name":"Port Morant","coordinates":{"x":4413,"y":4002},"angle":null,"textAnchor":"end","region":"Jamaica","countyCapitalName":"Kingston / Port Royal","county":"Surrey","countyCapital":false,"shallow":false,"availableForAll":false,"brLimit":10600,"portPoints":40,"portBattleStartTime":0,"portBattleType":"Medium","nonCapturable":true,"conquestMarksPension":1},{"id":79,"name":"Kingston / Port Royal","coordinates":{"x":4308,"y":3983},"angle":null,"textAnchor":"end","region":"Jamaica","countyCapitalName":"Kingston / Port Royal","county":"Surrey","countyCapital":true,"shallow":false,"availableForAll":false,"brLimit":20000,"portPoints":55,"portBattleStartTime":0,"portBattleType":"Large","nonCapturable":true,"conquestMarksPension":1},{"id":80,"name":"Carlisle","coordinates":{"x":4213,"y":4036},"angle":null,"textAnchor":"end","region":"Jamaica","countyCapitalName":"Kingston / Port Royal","county":"Surrey","countyCapital":false,"shallow":false,"availableForAll":false,"brLimit":10600,"portPoints":40,"portBattleStartTime":0,"portBattleType":"Medium","nonCapturable":true,"conquestMarksPension":1},{"id":81,"name":"Savanna la Mar","coordinates":{"x":4015,"y":3935},"angle":null,"textAnchor":"end","region":"Jamaica","countyCapitalName":"Savanna la Mar","county":"Cornwall","countyCapital":true,"shallow":false,"availableForAll":false,"brLimit":20000,"portPoints":50,"portBattleStartTime":0,"portBattleType":"Large","nonCapturable":true,"conquestMarksPension":1},{"id":82,"name":"Sale-Trou","coordinates":{"x":5452,"y":3948},"angle":null,"textAnchor":"end","region":"Hispaniola","countyCapitalName":"Les Cayes","county":"Les Cayes","countyCapital":false,"shallow":false,"availableForAll":false,"brLimit":5700,"portPoints":30,"portBattleStartTime":9,"portBattleType":"Medium","nonCapturable":false,"conquestMarksPension":1},{"id":83,"name":"Jacmel","coordinates":{"x":5299,"y":3926},"angle":null,"textAnchor":"end","region":"Hispaniola","countyCapitalName":"Les Cayes","county":"Les Cayes","countyCapital":false,"shallow":false,"availableForAll":false,"brLimit":10600,"portPoints":40,"portBattleStartTime":0,"portBattleType":"Large","nonCapturable":false,"conquestMarksPension":1},{"id":84,"name":"Saint-Louis","coordinates":{"x":5069,"y":3918},"angle":null,"textAnchor":"end","region":"Hispaniola","countyCapitalName":"Les Cayes","county":"Les Cayes","countyCapital":false,"shallow":false,"availableForAll":false,"brLimit":10600,"portPoints":40,"portBattleStartTime":0,"portBattleType":"Medium","nonCapturable":false,"conquestMarksPension":1},{"id":85,"name":"La Navasse","coordinates":{"x":4725,"y":3878},"angle":null,"textAnchor":"end","region":"Hispaniola","countyCapitalName":"Les Cayes","county":"Les Cayes","countyCapital":false,"shallow":false,"availableForAll":false,"brLimit":5700,"portPoints":30,"portBattleStartTime":0,"portBattleType":"Medium","nonCapturable":false,"conquestMarksPension":1},{"id":86,"name":"Les Cayes","coordinates":{"x":5023,"y":3937},"angle":null,"textAnchor":"end","region":"Hispaniola","countyCapitalName":"Les Cayes","county":"Les Cayes","countyCapital":true,"shallow":false,"availableForAll":false,"brLimit":20000,"portPoints":50,"portBattleStartTime":8,"portBattleType":"Large","nonCapturable":false,"conquestMarksPension":1},{"id":87,"name":"Tiburon","coordinates":{"x":4875,"y":3902},"angle":null,"textAnchor":"end","region":"Hispaniola","countyCapitalName":"Les Cayes","county":"Les Cayes","countyCapital":false,"shallow":false,"availableForAll":false,"brLimit":10600,"portPoints":40,"portBattleStartTime":0,"portBattleType":"Large","nonCapturable":false,"conquestMarksPension":1},{"id":88,"name":"Jérémie","coordinates":{"x":4942,"y":3830},"angle":null,"textAnchor":"end","region":"Hispaniola","countyCapitalName":"Port-au-Prince","county":"Port-au-Prince","countyCapital":false,"shallow":false,"availableForAll":false,"brLimit":10600,"portPoints":40,"portBattleStartTime":0,"portBattleType":"Medium","nonCapturable":false,"conquestMarksPension":1},{"id":89,"name":"Nippes","coordinates":{"x":5087,"y":3857},"angle":null,"textAnchor":"end","region":"Hispaniola","countyCapitalName":"Port-au-Prince","county":"Port-au-Prince","countyCapital":false,"shallow":false,"availableForAll":false,"brLimit":5700,"portPoints":30,"portBattleStartTime":0,"portBattleType":"Medium","nonCapturable":false,"conquestMarksPension":1},{"id":90,"name":"Léogane","coordinates":{"x":5276,"y":3856},"angle":null,"textAnchor":"end","region":"Hispaniola","countyCapitalName":"Port-au-Prince","county":"Port-au-Prince","countyCapital":false,"shallow":false,"availableForAll":false,"brLimit":10600,"portPoints":40,"portBattleStartTime":0,"portBattleType":"Medium","nonCapturable":false,"conquestMarksPension":1},{"id":91,"name":"Port-au-Prince","coordinates":{"x":5340,"y":3856},"angle":null,"textAnchor":"end","region":"Hispaniola","countyCapitalName":"Port-au-Prince","county":"Port-au-Prince","countyCapital":true,"shallow":false,"availableForAll":false,"brLimit":20000,"portPoints":50,"portBattleStartTime":0,"portBattleType":"Large","nonCapturable":false,"conquestMarksPension":3},{"id":92,"name":"Saint-Marc","coordinates":{"x":5267,"y":3715},"angle":null,"textAnchor":"end","region":"Hispaniola","countyCapitalName":"Port-au-Prince","county":"Port-au-Prince","countyCapital":false,"shallow":false,"availableForAll":false,"brLimit":10600,"portPoints":40,"portBattleStartTime":0,"portBattleType":"Medium","nonCapturable":false,"conquestMarksPension":1},{"id":93,"name":"Les Gonaïves","coordinates":{"x":5264,"y":3635},"angle":null,"textAnchor":"end","region":"Hispaniola","countyCapitalName":"Port-au-Prince","county":"Port-au-Prince","countyCapital":false,"shallow":false,"availableForAll":false,"brLimit":10600,"portPoints":40,"portBattleStartTime":0,"portBattleType":"Medium","nonCapturable":false,"conquestMarksPension":1},{"id":94,"name":"Saint-Nicolas","coordinates":{"x":5109,"y":3551},"angle":null,"textAnchor":"end","region":"Hispaniola","countyCapitalName":"Cap-Français","county":"Cap-Français","countyCapital":false,"shallow":false,"availableForAll":false,"brLimit":10600,"portPoints":40,"portBattleStartTime":8,"portBattleType":"Large","nonCapturable":false,"conquestMarksPension":1},{"id":95,"name":"Port-de-Paix","coordinates":{"x":5236,"y":3517},"angle":null,"textAnchor":"end","region":"Hispaniola","countyCapitalName":"Cap-Français","county":"Cap-Français","countyCapital":false,"shallow":false,"availableForAll":false,"brLimit":10600,"portPoints":40,"portBattleStartTime":5,"portBattleType":"Medium","nonCapturable":false,"conquestMarksPension":1},{"id":96,"name":"La Tortue","coordinates":{"x":5270,"y":3505},"angle":null,"textAnchor":"end","region":"Hispaniola","countyCapitalName":"","county":"","countyCapital":false,"shallow":false,"availableForAll":false,"brLimit":5700,"portPoints":30,"portBattleStartTime":0,"portBattleType":"Medium","nonCapturable":true,"conquestMarksPension":1},{"id":97,"name":"Cap-Français","coordinates":{"x":5381,"y":3566},"angle":null,"textAnchor":"end","region":"Hispaniola","countyCapitalName":"Cap-Français","county":"Cap-Français","countyCapital":true,"shallow":false,"availableForAll":false,"brLimit":20000,"portPoints":50,"portBattleStartTime":0,"portBattleType":"Large","nonCapturable":false,"conquestMarksPension":1},{"id":98,"name":"Fort-Dauphin","coordinates":{"x":5461,"y":3583},"angle":null,"textAnchor":"end","region":"Hispaniola","countyCapitalName":"Cap-Français","county":"Cap-Français","countyCapital":false,"shallow":false,"availableForAll":false,"brLimit":10600,"portPoints":40,"portBattleStartTime":8,"portBattleType":"Medium","nonCapturable":false,"conquestMarksPension":1},{"id":99,"name":"Montecristi","coordinates":{"x":5506,"y":3540},"angle":null,"textAnchor":"end","region":"Hispaniola","countyCapitalName":"Puerto Plata","county":"La Vega","countyCapital":false,"shallow":false,"availableForAll":false,"brLimit":10600,"portPoints":40,"portBattleStartTime":9,"portBattleType":"Medium","nonCapturable":false,"conquestMarksPension":1},{"id":100,"name":"La Isabela","coordinates":{"x":5635,"y":3533},"angle":null,"textAnchor":"end","region":"Hispaniola","countyCapitalName":"Puerto Plata","county":"La Vega","countyCapital":false,"shallow":false,"availableForAll":false,"brLimit":5700,"portPoints":30,"portBattleStartTime":0,"portBattleType":"Medium","nonCapturable":false,"conquestMarksPension":1},{"id":101,"name":"Puerto Plata","coordinates":{"x":5720,"y":3549},"angle":null,"textAnchor":"end","region":"Hispaniola","countyCapitalName":"Puerto Plata","county":"La Vega","countyCapital":true,"shallow":false,"availableForAll":false,"brLimit":20000,"portPoints":50,"portBattleStartTime":9,"portBattleType":"Large","nonCapturable":false,"conquestMarksPension":1},{"id":102,"name":"Rincón","coordinates":{"x":5799,"y":3574},"angle":null,"textAnchor":"end","region":"Hispaniola","countyCapitalName":"Puerto Plata","county":"La Vega","countyCapital":false,"shallow":false,"availableForAll":false,"brLimit":5700,"portPoints":30,"portBattleStartTime":0,"portBattleType":"Medium","nonCapturable":false,"conquestMarksPension":1},{"id":103,"name":"Bahía Escocesa","coordinates":{"x":5922,"y":3656},"angle":null,"textAnchor":"end","region":"Hispaniola","countyCapitalName":"Puerto Plata","county":"La Vega","countyCapital":false,"shallow":false,"availableForAll":false,"brLimit":5700,"portPoints":30,"portBattleStartTime":0,"portBattleType":"Medium","nonCapturable":false,"conquestMarksPension":1},{"id":104,"name":"Samaná","coordinates":{"x":6049,"y":3699},"angle":null,"textAnchor":"end","region":"Hispaniola","countyCapitalName":"Puerto Plata","county":"La Vega","countyCapital":false,"shallow":false,"availableForAll":false,"brLimit":10600,"portPoints":40,"portBattleStartTime":0,"portBattleType":"Large","nonCapturable":false,"conquestMarksPension":1},{"id":105,"name":"Macao","coordinates":{"x":6219,"y":3797},"angle":null,"textAnchor":"end","region":"Hispaniola","countyCapitalName":"Puerto Plata","county":"La Vega","countyCapital":false,"shallow":false,"availableForAll":false,"brLimit":5700,"portPoints":30,"portBattleStartTime":8,"portBattleType":"Medium","nonCapturable":false,"conquestMarksPension":1},{"id":106,"name":"Higüey","coordinates":{"x":6203,"y":3891},"angle":null,"textAnchor":"end","region":"Hispaniola","countyCapitalName":"Santo Domingo","county":"Santo Domingo","countyCapital":false,"shallow":false,"availableForAll":false,"brLimit":10600,"portPoints":40,"portBattleStartTime":8,"portBattleType":"Medium","nonCapturable":false,"conquestMarksPension":1},{"id":107,"name":"El Soco","coordinates":{"x":6067,"y":3875},"angle":null,"textAnchor":"end","region":"Hispaniola","countyCapitalName":"Santo Domingo","county":"Santo Domingo","countyCapital":false,"shallow":false,"availableForAll":false,"brLimit":5700,"portPoints":30,"portBattleStartTime":0,"portBattleType":"Medium","nonCapturable":false,"conquestMarksPension":1},{"id":108,"name":"Santo Domingo","coordinates":{"x":5909,"y":3870},"angle":null,"textAnchor":"end","region":"Hispaniola","countyCapitalName":"Santo Domingo","county":"Santo Domingo","countyCapital":true,"shallow":false,"availableForAll":false,"brLimit":20000,"portPoints":55,"portBattleStartTime":0,"portBattleType":"Large","nonCapturable":false,"conquestMarksPension":3},{"id":109,"name":"Baní","coordinates":{"x":5810,"y":3927},"angle":null,"textAnchor":"end","region":"Hispaniola","countyCapitalName":"Santo Domingo","county":"Santo Domingo","countyCapital":false,"shallow":false,"availableForAll":false,"brLimit":10600,"portPoints":40,"portBattleStartTime":0,"portBattleType":"Medium","nonCapturable":false,"conquestMarksPension":1},{"id":110,"name":"Azua","coordinates":{"x":5725,"y":3879},"angle":null,"textAnchor":"end","region":"Hispaniola","countyCapitalName":"Santo Domingo","county":"Santo Domingo","countyCapital":false,"shallow":false,"availableForAll":false,"brLimit":10600,"portPoints":40,"portBattleStartTime":0,"portBattleType":"Medium","nonCapturable":false,"conquestMarksPension":1},{"id":111,"name":"Barahona","coordinates":{"x":5639,"y":3938},"angle":null,"textAnchor":"end","region":"Hispaniola","countyCapitalName":"Santo Domingo","county":"Santo Domingo","countyCapital":false,"shallow":false,"availableForAll":false,"brLimit":5700,"portPoints":30,"portBattleStartTime":0,"portBattleType":"Medium","nonCapturable":false,"conquestMarksPension":1},{"id":112,"name":"La Mona","coordinates":{"x":6368,"y":3965},"angle":null,"textAnchor":"end","region":"Puerto Rico","countyCapitalName":"","county":"","countyCapital":false,"shallow":false,"availableForAll":false,"brLimit":5700,"portPoints":30,"portBattleStartTime":0,"portBattleType":"Medium","nonCapturable":true,"conquestMarksPension":1},{"id":113,"name":"Aguadilla","coordinates":{"x":6506,"y":3814},"angle":null,"textAnchor":"end","region":"Puerto Rico","countyCapitalName":"San Juan","county":"San Juan","countyCapital":false,"shallow":false,"availableForAll":false,"brLimit":10600,"portPoints":40,"portBattleStartTime":9,"portBattleType":"Medium","nonCapturable":false,"conquestMarksPension":1},{"id":114,"name":"Arecibo","coordinates":{"x":6610,"y":3831},"angle":null,"textAnchor":"end","region":"Puerto Rico","countyCapitalName":"San Juan","county":"San Juan","countyCapital":false,"shallow":false,"availableForAll":false,"brLimit":10600,"portPoints":40,"portBattleStartTime":8,"portBattleType":"Medium","nonCapturable":false,"conquestMarksPension":1},{"id":115,"name":"San Juan","coordinates":{"x":6759,"y":3860},"angle":null,"textAnchor":"end","region":"Puerto Rico","countyCapitalName":"San Juan","county":"San Juan","countyCapital":true,"shallow":false,"availableForAll":false,"brLimit":20000,"portPoints":55,"portBattleStartTime":7,"portBattleType":"Large","nonCapturable":false,"conquestMarksPension":3},{"id":116,"name":"Fajardo","coordinates":{"x":6893,"y":3874},"angle":null,"textAnchor":"end","region":"Puerto Rico","countyCapitalName":"San Juan","county":"San Juan","countyCapital":false,"shallow":false,"availableForAll":false,"brLimit":5700,"portPoints":30,"portBattleStartTime":8,"portBattleType":"Medium","nonCapturable":false,"conquestMarksPension":1},{"id":117,"name":"Guayama","coordinates":{"x":6837,"y":3953},"angle":null,"textAnchor":"end","region":"Puerto Rico","countyCapitalName":"Ponce","county":"Ponce","countyCapital":false,"shallow":false,"availableForAll":false,"brLimit":5700,"portPoints":30,"portBattleStartTime":9,"portBattleType":"Medium","nonCapturable":false,"conquestMarksPension":1},{"id":118,"name":"Ponce","coordinates":{"x":6655,"y":3928},"angle":null,"textAnchor":"end","region":"Puerto Rico","countyCapitalName":"Ponce","county":"Ponce","countyCapital":true,"shallow":false,"availableForAll":false,"brLimit":10600,"portPoints":40,"portBattleStartTime":0,"portBattleType":"Large","nonCapturable":false,"conquestMarksPension":1},{"id":119,"name":"Guánica","coordinates":{"x":6545,"y":3912},"angle":null,"textAnchor":"end","region":"Puerto Rico","countyCapitalName":"Ponce","county":"Ponce","countyCapital":false,"shallow":false,"availableForAll":false,"brLimit":10600,"portPoints":40,"portBattleStartTime":0,"portBattleType":"Medium","nonCapturable":false,"conquestMarksPension":1},{"id":120,"name":"Cabo Rojo","coordinates":{"x":6508,"y":3896},"angle":null,"textAnchor":"end","region":"Puerto Rico","countyCapitalName":"Ponce","county":"Ponce","countyCapital":false,"shallow":false,"availableForAll":false,"brLimit":5700,"portPoints":30,"portBattleStartTime":9,"portBattleType":"Medium","nonCapturable":false,"conquestMarksPension":1},{"id":121,"name":"Vieques","coordinates":{"x":6927,"y":3942},"angle":null,"textAnchor":"end","region":"Puerto Rico","countyCapitalName":"Ponce","county":"Ponce","countyCapital":false,"shallow":false,"availableForAll":false,"brLimit":5700,"portPoints":30,"portBattleStartTime":0,"portBattleType":"Medium","nonCapturable":false,"conquestMarksPension":1},{"id":122,"name":"Pasaje","coordinates":{"x":6958,"y":3888},"angle":null,"textAnchor":"end","region":"Puerto Rico","countyCapitalName":"San Juan","county":"San Juan","countyCapital":false,"shallow":false,"availableForAll":false,"brLimit":5700,"portPoints":30,"portBattleStartTime":0,"portBattleType":"Medium","nonCapturable":false,"conquestMarksPension":1},{"id":123,"name":"Amalienborg","coordinates":{"x":7079,"y":3928},"angle":null,"textAnchor":"end","region":"Upper Antilles","countyCapitalName":"Spanish Town","county":"Virgin Islands","countyCapital":false,"shallow":false,"availableForAll":false,"brLimit":10600,"portPoints":40,"portBattleStartTime":0,"portBattleType":"Large","nonCapturable":false,"conquestMarksPension":1},{"id":124,"name":"Coral Bay","coordinates":{"x":7135,"y":3939},"angle":null,"textAnchor":"end","region":"Upper Antilles","countyCapitalName":"Spanish Town","county":"Virgin Islands","countyCapital":false,"shallow":false,"availableForAll":false,"brLimit":5700,"portPoints":30,"portBattleStartTime":0,"portBattleType":"Medium","nonCapturable":false,"conquestMarksPension":1},{"id":125,"name":"Road Town","coordinates":{"x":7170,"y":3921},"angle":null,"textAnchor":"end","region":"Upper Antilles","countyCapitalName":"Spanish Town","county":"Virgin Islands","countyCapital":false,"shallow":false,"availableForAll":false,"brLimit":10600,"portPoints":40,"portBattleStartTime":0,"portBattleType":"Large","nonCapturable":false,"conquestMarksPension":3},{"id":126,"name":"The Settlement","coordinates":{"x":7264,"y":3868},"angle":null,"textAnchor":"end","region":"Upper Antilles","countyCapitalName":"Spanish Town","county":"Virgin Islands","countyCapital":false,"shallow":true,"availableForAll":false,"brLimit":900,"portPoints":30,"portBattleStartTime":0,"portBattleType":"Small","nonCapturable":false,"conquestMarksPension":1},{"id":127,"name":"Spanish Town","coordinates":{"x":7224,"y":3920},"angle":null,"textAnchor":"end","region":"Upper Antilles","countyCapitalName":"Spanish Town","county":"Virgin Islands","countyCapital":true,"shallow":false,"availableForAll":false,"brLimit":10600,"portPoints":40,"portBattleStartTime":8,"portBattleType":"Medium","nonCapturable":false,"conquestMarksPension":1},{"id":128,"name":"Frederiksted","coordinates":{"x":7040,"y":4072},"angle":null,"textAnchor":"end","region":"Upper Antilles","countyCapitalName":"Christiansted","county":"Vestindiske Øer","countyCapital":false,"shallow":false,"availableForAll":false,"brLimit":10600,"portPoints":40,"portBattleStartTime":0,"portBattleType":"Medium","nonCapturable":true,"conquestMarksPension":1},{"id":129,"name":"Christiansted","coordinates":{"x":7099,"y":4042},"angle":null,"textAnchor":"end","region":"Upper Antilles","countyCapitalName":"Christiansted","county":"Vestindiske Øer","countyCapital":true,"shallow":false,"availableForAll":false,"brLimit":20000,"portPoints":50,"portBattleStartTime":0,"portBattleType":"Large","nonCapturable":true,"conquestMarksPension":1},{"id":130,"name":"Hat Island","coordinates":{"x":7391,"y":3847},"angle":null,"textAnchor":"end","region":"Upper Antilles","countyCapitalName":"Spanish Town","county":"Virgin Islands","countyCapital":false,"shallow":false,"availableForAll":false,"brLimit":5700,"portPoints":30,"portBattleStartTime":0,"portBattleType":"Medium","nonCapturable":false,"conquestMarksPension":1},{"id":131,"name":"Marigot","coordinates":{"x":7486,"y":3978},"angle":null,"textAnchor":"end","region":"Upper Antilles","countyCapitalName":"Oranjestad","county":"Bovenwinds","countyCapital":false,"shallow":false,"availableForAll":false,"brLimit":10600,"portPoints":40,"portBattleStartTime":0,"portBattleType":"Large","nonCapturable":false,"conquestMarksPension":1},{"id":132,"name":"Philipsburg","coordinates":{"x":7492,"y":4004},"angle":null,"textAnchor":"end","region":"Upper Antilles","countyCapitalName":"Oranjestad","county":"Bovenwinds","countyCapital":false,"shallow":false,"availableForAll":false,"brLimit":10600,"portPoints":40,"portBattleStartTime":0,"portBattleType":"Medium","nonCapturable":false,"conquestMarksPension":1},{"id":133,"name":"Gustavia","coordinates":{"x":7530,"y":4047},"angle":null,"textAnchor":"end","region":"Upper Antilles","countyCapitalName":"Gustavia","county":"Gustavia","countyCapital":true,"shallow":false,"availableForAll":false,"brLimit":20000,"portPoints":50,"portBattleStartTime":0,"portBattleType":"Large","nonCapturable":true,"conquestMarksPension":1},{"id":134,"name":"Codrington","coordinates":{"x":7772,"y":4064},"angle":null,"textAnchor":"end","region":"Upper Antilles","countyCapitalName":"Saint John's","county":"Leeward Islands","countyCapital":false,"shallow":false,"availableForAll":false,"brLimit":10600,"portPoints":40,"portBattleStartTime":0,"portBattleType":"Medium","nonCapturable":false,"conquestMarksPension":1},{"id":135,"name":"Fort Baai","coordinates":{"x":7408,"y":4059},"angle":null,"textAnchor":"end","region":"Upper Antilles","countyCapitalName":"Oranjestad","county":"Bovenwinds","countyCapital":false,"shallow":false,"availableForAll":false,"brLimit":5700,"portPoints":30,"portBattleStartTime":0,"portBattleType":"Medium","nonCapturable":false,"conquestMarksPension":1},{"id":136,"name":"Oranjestad","coordinates":{"x":7488,"y":4129},"angle":null,"textAnchor":"end","region":"Upper Antilles","countyCapitalName":"Oranjestad","county":"Bovenwinds","countyCapital":true,"shallow":false,"availableForAll":false,"brLimit":20000,"portPoints":50,"portBattleStartTime":8,"portBattleType":"Large","nonCapturable":false,"conquestMarksPension":1},{"id":137,"name":"Basseterre Town","coordinates":{"x":7562,"y":4164},"angle":null,"textAnchor":"end","region":"Upper Antilles","countyCapitalName":"Saint John's","county":"Leeward Islands","countyCapital":false,"shallow":false,"availableForAll":false,"brLimit":10600,"portPoints":40,"portBattleStartTime":0,"portBattleType":"Medium","nonCapturable":false,"conquestMarksPension":1},{"id":138,"name":"Charles Town","coordinates":{"x":7604,"y":4189},"angle":null,"textAnchor":"end","region":"Upper Antilles","countyCapitalName":"Saint John's","county":"Leeward Islands","countyCapital":false,"shallow":false,"availableForAll":false,"brLimit":10600,"portPoints":40,"portBattleStartTime":0,"portBattleType":"Large","nonCapturable":false,"conquestMarksPension":1},{"id":139,"name":"La Désirade","coordinates":{"x":7956,"y":4381},"angle":null,"textAnchor":"end","region":"Central Antilles","countyCapitalName":"Pointe-à-Pitre","county":"Grande-Terre","countyCapital":false,"shallow":false,"availableForAll":false,"brLimit":5700,"portPoints":30,"portBattleStartTime":0,"portBattleType":"Medium","nonCapturable":false,"conquestMarksPension":1},{"id":140,"name":"Saint John’s","coordinates":{"x":7772,"y":4190},"angle":null,"textAnchor":"end","region":"Upper Antilles","countyCapitalName":"Saint John's","county":"Leeward Islands","countyCapital":true,"shallow":false,"availableForAll":false,"brLimit":20000,"portPoints":50,"portBattleStartTime":0,"portBattleType":"Large","nonCapturable":false,"conquestMarksPension":1},{"id":141,"name":"English Harbour","coordinates":{"x":7804,"y":4220},"angle":null,"textAnchor":"end","region":"Upper Antilles","countyCapitalName":"Saint John's","county":"Leeward Islands","countyCapital":false,"shallow":false,"availableForAll":false,"brLimit":5700,"portPoints":30,"portBattleStartTime":0,"portBattleType":"Large","nonCapturable":false,"conquestMarksPension":1},{"id":142,"name":"Port-Louis","coordinates":{"x":7837,"y":4358},"angle":null,"textAnchor":"end","region":"Central Antilles","countyCapitalName":"Pointe-à-Pitre","county":"Grande-Terre","countyCapital":false,"shallow":false,"availableForAll":false,"brLimit":10600,"portPoints":40,"portBattleStartTime":0,"portBattleType":"Medium","nonCapturable":false,"conquestMarksPension":1},{"id":143,"name":"Le Moule","coordinates":{"x":7891,"y":4380},"angle":null,"textAnchor":"end","region":"Central Antilles","countyCapitalName":"Pointe-à-Pitre","county":"Grande-Terre","countyCapital":false,"shallow":false,"availableForAll":false,"brLimit":5700,"portPoints":30,"portBattleStartTime":0,"portBattleType":"Medium","nonCapturable":false,"conquestMarksPension":1},{"id":144,"name":"Saint-François","coordinates":{"x":7900,"y":4398},"angle":null,"textAnchor":"end","region":"Central Antilles","countyCapitalName":"Pointe-à-Pitre","county":"Grande-Terre","countyCapital":false,"shallow":false,"availableForAll":false,"brLimit":5700,"portPoints":30,"portBattleStartTime":0,"portBattleType":"Medium","nonCapturable":false,"conquestMarksPension":1},{"id":145,"name":"Pointe-à-Pitre","coordinates":{"x":7836,"y":4400},"angle":null,"textAnchor":"end","region":"Central Antilles","countyCapitalName":"Pointe-à-Pitre","county":"Grande-Terre","countyCapital":true,"shallow":false,"availableForAll":false,"brLimit":10600,"portPoints":40,"portBattleStartTime":0,"portBattleType":"Large","nonCapturable":false,"conquestMarksPension":1},{"id":146,"name":"Basse-Terre","coordinates":{"x":7792,"y":4460},"angle":null,"textAnchor":"end","region":"Central Antilles","countyCapitalName":"Basse-Terre","county":"Basse-Terre","countyCapital":true,"shallow":false,"availableForAll":false,"brLimit":20000,"portPoints":50,"portBattleStartTime":8,"portBattleType":"Large","nonCapturable":false,"conquestMarksPension":1},{"id":147,"name":"Deshaies","coordinates":{"x":7776,"y":4387},"angle":null,"textAnchor":"end","region":"Central Antilles","countyCapitalName":"Basse-Terre","county":"Basse-Terre","countyCapital":false,"shallow":false,"availableForAll":false,"brLimit":10600,"portPoints":40,"portBattleStartTime":0,"portBattleType":"Medium","nonCapturable":false,"conquestMarksPension":1},{"id":148,"name":"Terre-de-Bas","coordinates":{"x":7815,"y":4498},"angle":null,"textAnchor":"end","region":"Central Antilles","countyCapitalName":"Basse-Terre","county":"Basse-Terre","countyCapital":false,"shallow":false,"availableForAll":false,"brLimit":5700,"portPoints":30,"portBattleStartTime":0,"portBattleType":"Medium","nonCapturable":false,"conquestMarksPension":1},{"id":149,"name":"Camp du Roy","coordinates":{"x":7891,"y":4489},"angle":null,"textAnchor":"end","region":"Central Antilles","countyCapitalName":"Pointe-à-Pitre","county":"Grande-Terre","countyCapital":false,"shallow":false,"availableForAll":false,"brLimit":5700,"portPoints":30,"portBattleStartTime":0,"portBattleType":"Medium","nonCapturable":false,"conquestMarksPension":1},{"id":150,"name":"Aves","coordinates":{"x":7357,"y":4578},"angle":null,"textAnchor":"end","region":"Central Antilles","countyCapitalName":"","county":"","countyCapital":false,"shallow":false,"availableForAll":false,"brLimit":5700,"portPoints":30,"portBattleStartTime":0,"portBattleType":"Medium","nonCapturable":true,"conquestMarksPension":1},{"id":151,"name":"Rosaly","coordinates":{"x":7904,"y":4608},"angle":null,"textAnchor":"end","region":"Central Antilles","countyCapitalName":"Roseau","county":"Dominica","countyCapital":false,"shallow":false,"availableForAll":false,"brLimit":10600,"portPoints":40,"portBattleStartTime":0,"portBattleType":"Medium","nonCapturable":false,"conquestMarksPension":1},{"id":152,"name":"Roseau","coordinates":{"x":7874,"y":4632},"angle":null,"textAnchor":"end","region":"Central Antilles","countyCapitalName":"Roseau","county":"Dominica","countyCapital":true,"shallow":false,"availableForAll":false,"brLimit":10600,"portPoints":40,"portBattleStartTime":10,"portBattleType":"Large","nonCapturable":false,"conquestMarksPension":1},{"id":153,"name":"Grand Anse","coordinates":{"x":7856,"y":4563},"angle":null,"textAnchor":"end","region":"Central Antilles","countyCapitalName":"Roseau","county":"Dominica","countyCapital":false,"shallow":false,"availableForAll":false,"brLimit":10600,"portPoints":40,"portBattleStartTime":11,"portBattleType":"Medium","nonCapturable":false,"conquestMarksPension":1},{"id":154,"name":"La Trinité","coordinates":{"x":7975,"y":4754},"angle":null,"textAnchor":"end","region":"Central Antilles","countyCapitalName":"Fort-Royal","county":"Martinique","countyCapital":false,"shallow":false,"availableForAll":false,"brLimit":10600,"portPoints":40,"portBattleStartTime":0,"portBattleType":"Medium","nonCapturable":true,"conquestMarksPension":1},{"id":155,"name":"Marin","coordinates":{"x":7998,"y":4827},"angle":null,"textAnchor":"end","region":"Central Antilles","countyCapitalName":"Fort-Royal","county":"Martinique","countyCapital":false,"shallow":false,"availableForAll":false,"brLimit":5700,"portPoints":30,"portBattleStartTime":0,"portBattleType":"Medium","nonCapturable":true,"conquestMarksPension":1},{"id":156,"name":"Fort-Royal","coordinates":{"x":7948,"y":4795},"angle":null,"textAnchor":"end","region":"Central Antilles","countyCapitalName":"Fort-Royal","county":"Martinique","countyCapital":true,"shallow":false,"availableForAll":false,"brLimit":20000,"portPoints":50,"portBattleStartTime":0,"portBattleType":"Large","nonCapturable":true,"conquestMarksPension":1},{"id":157,"name":"Saint-Pierre","coordinates":{"x":7920,"y":4757},"angle":null,"textAnchor":"end","region":"Central Antilles","countyCapitalName":"Fort-Royal","county":"Martinique","countyCapital":false,"shallow":false,"availableForAll":false,"brLimit":20000,"portPoints":50,"portBattleStartTime":0,"portBattleType":"Medium","nonCapturable":true,"conquestMarksPension":1},{"id":158,"name":"Castries","coordinates":{"x":7963,"y":4936},"angle":null,"textAnchor":"end","region":"Lower Antilles","countyCapitalName":"Castries","county":"Sainte-Lucie","countyCapital":true,"shallow":false,"availableForAll":false,"brLimit":10600,"portPoints":40,"portBattleStartTime":0,"portBattleType":"Large","nonCapturable":true,"conquestMarksPension":1},{"id":159,"name":"Vieux-Fort","coordinates":{"x":7973,"y":4996},"angle":null,"textAnchor":"end","region":"Lower Antilles","countyCapitalName":"Castries","county":"Sainte-Lucie","countyCapital":false,"shallow":false,"availableForAll":false,"brLimit":10600,"portPoints":40,"portBattleStartTime":0,"portBattleType":"Medium","nonCapturable":true,"conquestMarksPension":1},{"id":160,"name":"Saint Joseph","coordinates":{"x":8158,"y":5181},"angle":null,"textAnchor":"end","region":"Lower Antilles","countyCapitalName":"Bridgetown","county":"Windward Isles","countyCapital":false,"shallow":false,"availableForAll":false,"brLimit":5700,"portPoints":30,"portBattleStartTime":0,"portBattleType":"Medium","nonCapturable":false,"conquestMarksPension":1},{"id":161,"name":"Bridgetown","coordinates":{"x":8140,"y":5212},"angle":null,"textAnchor":"end","region":"Lower Antilles","countyCapitalName":"Bridgetown","county":"Windward Isles","countyCapital":true,"shallow":false,"availableForAll":false,"brLimit":20000,"portPoints":55,"portBattleStartTime":10,"portBattleType":"Large","nonCapturable":false,"conquestMarksPension":3},{"id":162,"name":"Kingstown","coordinates":{"x":7909,"y":5140},"angle":null,"textAnchor":"end","region":"Lower Antilles","countyCapitalName":"Bridgetown","county":"Windward Isles","countyCapital":false,"shallow":false,"availableForAll":false,"brLimit":10600,"portPoints":40,"portBattleStartTime":0,"portBattleType":"Medium","nonCapturable":false,"conquestMarksPension":1},{"id":163,"name":"Carriacou","coordinates":{"x":7854,"y":5299},"angle":null,"textAnchor":"end","region":"Lower Antilles","countyCapitalName":"Bridgetown","county":"Windward Isles","countyCapital":false,"shallow":false,"availableForAll":false,"brLimit":5700,"portPoints":30,"portBattleStartTime":0,"portBattleType":"Medium","nonCapturable":false,"conquestMarksPension":1},{"id":164,"name":"Saint George","coordinates":{"x":7785,"y":5402},"angle":null,"textAnchor":"end","region":"Lower Antilles","countyCapitalName":"Bridgetown","county":"Windward Isles","countyCapital":false,"shallow":false,"availableForAll":false,"brLimit":10600,"portPoints":40,"portBattleStartTime":10,"portBattleType":"Large","nonCapturable":false,"conquestMarksPension":1},{"id":165,"name":"Scarborough","coordinates":{"x":8045,"y":5615},"angle":null,"textAnchor":"end","region":"South America","countyCapitalName":"Puerto de España","county":"Trinidad","countyCapital":false,"shallow":false,"availableForAll":false,"brLimit":5700,"portPoints":30,"portBattleStartTime":10,"portBattleType":"Large","nonCapturable":false,"conquestMarksPension":1},{"id":166,"name":"El Toco","coordinates":{"x":7996,"y":5693},"angle":null,"textAnchor":"end","region":"South America","countyCapitalName":"Puerto de España","county":"Trinidad","countyCapital":false,"shallow":false,"availableForAll":false,"brLimit":5700,"portPoints":30,"portBattleStartTime":0,"portBattleType":"Medium","nonCapturable":false,"conquestMarksPension":1},{"id":167,"name":"Caño Macareo","coordinates":{"x":7834,"y":5938},"angle":null,"textAnchor":"end","region":"South America","countyCapitalName":"Santo Tomé de Guayana","county":"Orinoco","countyCapital":false,"shallow":false,"availableForAll":false,"brLimit":5700,"portPoints":30,"portBattleStartTime":17,"portBattleType":"Medium","nonCapturable":false,"conquestMarksPension":1},{"id":168,"name":"Naparima","coordinates":{"x":7876,"y":5821},"angle":null,"textAnchor":"end","region":"South America","countyCapitalName":"Puerto de España","county":"Trinidad","countyCapital":false,"shallow":false,"availableForAll":false,"brLimit":5700,"portPoints":30,"portBattleStartTime":5,"portBattleType":"Medium","nonCapturable":false,"conquestMarksPension":1},{"id":169,"name":"Puerto de España","coordinates":{"x":7858,"y":5738},"angle":null,"textAnchor":"end","region":"South America","countyCapitalName":"Puerto de España","county":"Trinidad","countyCapital":true,"shallow":false,"availableForAll":false,"brLimit":20000,"portPoints":50,"portBattleStartTime":5,"portBattleType":"Large","nonCapturable":false,"conquestMarksPension":1},{"id":170,"name":"La Blanquilla","coordinates":{"x":7139,"y":5436},"angle":null,"textAnchor":"end","region":"South America","countyCapitalName":"Pampatar","county":"Margarita","countyCapital":false,"shallow":false,"availableForAll":false,"brLimit":5700,"portPoints":30,"portBattleStartTime":0,"portBattleType":"Medium","nonCapturable":false,"conquestMarksPension":1},{"id":171,"name":"La Orchilla","coordinates":{"x":6754,"y":5468},"angle":null,"textAnchor":"end","region":"South America","countyCapitalName":"Pampatar","county":"Margarita","countyCapital":false,"shallow":false,"availableForAll":false,"brLimit":5700,"portPoints":30,"portBattleStartTime":0,"portBattleType":"Medium","nonCapturable":false,"conquestMarksPension":1},{"id":172,"name":"Las Aves","coordinates":{"x":6514,"y":5430},"angle":null,"textAnchor":"end","region":"South America","countyCapitalName":"Willemstad","county":"Benedenwinds","countyCapital":false,"shallow":false,"availableForAll":false,"brLimit":5700,"portPoints":30,"portBattleStartTime":0,"portBattleType":"Medium","nonCapturable":true,"conquestMarksPension":1},{"id":173,"name":"Fort Oranje","coordinates":{"x":6294,"y":5391},"angle":null,"textAnchor":"end","region":"South America","countyCapitalName":"Willemstad","county":"Benedenwinds","countyCapital":false,"shallow":false,"availableForAll":false,"brLimit":5700,"portPoints":30,"portBattleStartTime":0,"portBattleType":"Medium","nonCapturable":true,"conquestMarksPension":1},{"id":174,"name":"Willemstad","coordinates":{"x":6153,"y":5377},"angle":null,"textAnchor":"end","region":"South America","countyCapitalName":"Willemstad","county":"Benedenwinds","countyCapital":true,"shallow":false,"availableForAll":false,"brLimit":20000,"portPoints":50,"portBattleStartTime":0,"portBattleType":"Large","nonCapturable":true,"conquestMarksPension":1},{"id":175,"name":"Fort Zoutman","coordinates":{"x":5894,"y":5306},"angle":null,"textAnchor":"end","region":"South America","countyCapitalName":"Willemstad","county":"Benedenwinds","countyCapital":false,"shallow":false,"availableForAll":false,"brLimit":5700,"portPoints":30,"portBattleStartTime":0,"portBattleType":"Medium","nonCapturable":true,"conquestMarksPension":1},{"id":176,"name":"Santo Tomé de Guayana","coordinates":{"x":8051,"y":6222},"angle":null,"textAnchor":"end","region":"South America","countyCapitalName":"Santo Tomé de Guayana","county":"Orinoco","countyCapital":true,"shallow":false,"availableForAll":false,"brLimit":20000,"portPoints":50,"portBattleStartTime":0,"portBattleType":"Large","nonCapturable":false,"conquestMarksPension":1},{"id":177,"name":"Caño Araguao","coordinates":{"x":8034,"y":6059},"angle":null,"textAnchor":"end","region":"South America","countyCapitalName":"Santo Tomé de Guayana","county":"Orinoco","countyCapital":false,"shallow":false,"availableForAll":false,"brLimit":5700,"portPoints":30,"portBattleStartTime":8,"portBattleType":"Medium","nonCapturable":false,"conquestMarksPension":1},{"id":178,"name":"Caño Araguabisi","coordinates":{"x":7930,"y":5985},"angle":null,"textAnchor":"end","region":"South America","countyCapitalName":"Santo Tomé de Guayana","county":"Orinoco","countyCapital":false,"shallow":false,"availableForAll":false,"brLimit":5700,"portPoints":30,"portBattleStartTime":7,"portBattleType":"Medium","nonCapturable":false,"conquestMarksPension":1},{"id":179,"name":"Guayaguayare","coordinates":{"x":7979,"y":5858},"angle":null,"textAnchor":"end","region":"South America","countyCapitalName":"","county":"","countyCapital":false,"shallow":false,"availableForAll":false,"brLimit":5700,"portPoints":30,"portBattleStartTime":0,"portBattleType":"Medium","nonCapturable":true,"conquestMarksPension":1},{"id":180,"name":"Pedernales","coordinates":{"x":7703,"y":5890},"angle":null,"textAnchor":"end","region":"South America","countyCapitalName":"Santo Tomé de Guayana","county":"Orinoco","countyCapital":false,"shallow":false,"availableForAll":false,"brLimit":5700,"portPoints":30,"portBattleStartTime":7,"portBattleType":"Medium","nonCapturable":false,"conquestMarksPension":1},{"id":181,"name":"Yaguaraparo","coordinates":{"x":7557,"y":5770},"angle":null,"textAnchor":"end","region":"South America","countyCapitalName":"Santo Tomé de Guayana","county":"Orinoco","countyCapital":false,"shallow":false,"availableForAll":false,"brLimit":5700,"portPoints":30,"portBattleStartTime":0,"portBattleType":"Medium","nonCapturable":false,"conquestMarksPension":1},{"id":182,"name":"Güiria","coordinates":{"x":7682,"y":5762},"angle":null,"textAnchor":"end","region":"South America","countyCapitalName":"Santo Tomé de Guayana","county":"Orinoco","countyCapital":false,"shallow":false,"availableForAll":false,"brLimit":10600,"portPoints":40,"portBattleStartTime":0,"portBattleType":"Medium","nonCapturable":false,"conquestMarksPension":1},{"id":183,"name":"Galdonas","coordinates":{"x":7544,"y":5724},"angle":null,"textAnchor":"end","region":"South America","countyCapitalName":"Cumaná","county":"Cumaná","countyCapital":false,"shallow":false,"availableForAll":false,"brLimit":5700,"portPoints":30,"portBattleStartTime":0,"portBattleType":"Medium","nonCapturable":false,"conquestMarksPension":1},{"id":184,"name":"Carúpano","coordinates":{"x":7462,"y":5731},"angle":null,"textAnchor":"end","region":"South America","countyCapitalName":"Cumaná","county":"Cumaná","countyCapital":false,"shallow":false,"availableForAll":false,"brLimit":5700,"portPoints":30,"portBattleStartTime":0,"portBattleType":"Medium","nonCapturable":false,"conquestMarksPension":1},{"id":185,"name":"Pampatar","coordinates":{"x":7330,"y":5647},"angle":null,"textAnchor":"end","region":"South America","countyCapitalName":"Pampatar","county":"Margarita","countyCapital":true,"shallow":false,"availableForAll":false,"brLimit":10600,"portPoints":40,"portBattleStartTime":0,"portBattleType":"Large","nonCapturable":false,"conquestMarksPension":1},{"id":186,"name":"Macanao","coordinates":{"x":7193,"y":5634},"angle":null,"textAnchor":"end","region":"South America","countyCapitalName":"Pampatar","county":"Margarita","countyCapital":false,"shallow":false,"availableForAll":false,"brLimit":10600,"portPoints":40,"portBattleStartTime":0,"portBattleType":"Medium","nonCapturable":false,"conquestMarksPension":1},{"id":187,"name":"La Tortuga","coordinates":{"x":6981,"y":5668},"angle":null,"textAnchor":"end","region":"South America","countyCapitalName":"Pampatar","county":"Margarita","countyCapital":false,"shallow":true,"availableForAll":false,"brLimit":900,"portPoints":30,"portBattleStartTime":0,"portBattleType":"Small","nonCapturable":false,"conquestMarksPension":1},{"id":188,"name":"Cariaco","coordinates":{"x":7336,"y":5786},"angle":null,"textAnchor":"end","region":"South America","countyCapitalName":"Cumaná","county":"Cumaná","countyCapital":false,"shallow":false,"availableForAll":false,"brLimit":10600,"portPoints":40,"portBattleStartTime":0,"portBattleType":"Medium","nonCapturable":false,"conquestMarksPension":1},{"id":189,"name":"Cumaná","coordinates":{"x":7240,"y":5784},"angle":null,"textAnchor":"end","region":"South America","countyCapitalName":"Cumaná","county":"Cumaná","countyCapital":true,"shallow":false,"availableForAll":false,"brLimit":20000,"portPoints":50,"portBattleStartTime":0,"portBattleType":"Large","nonCapturable":false,"conquestMarksPension":1},{"id":190,"name":"Nueva Barcelona","coordinates":{"x":7121,"y":5853},"angle":null,"textAnchor":"end","region":"South America","countyCapitalName":"Cumaná","county":"Cumaná","countyCapital":false,"shallow":false,"availableForAll":false,"brLimit":20000,"portPoints":50,"portBattleStartTime":0,"portBattleType":"Medium","nonCapturable":false,"conquestMarksPension":1},{"id":191,"name":"Píritu","coordinates":{"x":7048,"y":5878},"angle":null,"textAnchor":"end","region":"South America","countyCapitalName":"Cumaná","county":"Cumaná","countyCapital":false,"shallow":false,"availableForAll":false,"brLimit":5700,"portPoints":30,"portBattleStartTime":0,"portBattleType":"Medium","nonCapturable":false,"conquestMarksPension":1},{"id":192,"name":"Río Chico","coordinates":{"x":6827,"y":5802},"angle":null,"textAnchor":"end","region":"South America","countyCapitalName":"Caracas","county":"Caracas","countyCapital":false,"shallow":false,"availableForAll":false,"brLimit":10600,"portPoints":40,"portBattleStartTime":0,"portBattleType":"Medium","nonCapturable":false,"conquestMarksPension":1},{"id":193,"name":"Caracas","coordinates":{"x":6600,"y":5751},"angle":null,"textAnchor":"end","region":"South America","countyCapitalName":"Caracas","county":"Caracas","countyCapital":true,"shallow":false,"availableForAll":false,"brLimit":20000,"portPoints":55,"portBattleStartTime":0,"portBattleType":"Large","nonCapturable":false,"conquestMarksPension":1},{"id":194,"name":"Puerto Cabello","coordinates":{"x":6356,"y":5785},"angle":null,"textAnchor":"end","region":"South America","countyCapitalName":"Caracas","county":"Caracas","countyCapital":false,"shallow":false,"availableForAll":false,"brLimit":10600,"portPoints":40,"portBattleStartTime":0,"portBattleType":"Large","nonCapturable":false,"conquestMarksPension":1},{"id":195,"name":"Río Tocuyo","coordinates":{"x":6284,"y":5642},"angle":null,"textAnchor":"end","region":"South America","countyCapitalName":"Caracas","county":"Caracas","countyCapital":false,"shallow":false,"availableForAll":false,"brLimit":5700,"portPoints":30,"portBattleStartTime":0,"portBattleType":"Medium","nonCapturable":false,"conquestMarksPension":1},{"id":196,"name":"Coro","coordinates":{"x":5998,"y":5550},"angle":null,"textAnchor":"end","region":"South America","countyCapitalName":"Caracas","county":"Caracas","countyCapital":false,"shallow":false,"availableForAll":false,"brLimit":20000,"portPoints":50,"portBattleStartTime":8,"portBattleType":"Large","nonCapturable":false,"conquestMarksPension":1},{"id":197,"name":"Mitara","coordinates":{"x":5912,"y":5537},"angle":null,"textAnchor":"end","region":"South America","countyCapitalName":"Maracaibo","county":"Golfo de Maracaibo","countyCapital":false,"shallow":false,"availableForAll":false,"brLimit":5700,"portPoints":30,"portBattleStartTime":0,"portBattleType":"Medium","nonCapturable":false,"conquestMarksPension":1},{"id":198,"name":"Casigua","coordinates":{"x":5674,"y":5636},"angle":null,"textAnchor":"end","region":"South America","countyCapitalName":"Maracaibo","county":"Golfo de Maracaibo","countyCapital":false,"shallow":false,"availableForAll":false,"brLimit":5700,"portPoints":30,"portBattleStartTime":18,"portBattleType":"Medium","nonCapturable":false,"conquestMarksPension":1},{"id":199,"name":"Lagunillas","coordinates":{"x":5610,"y":5867},"angle":null,"textAnchor":"end","region":"South America","countyCapitalName":"Gibraltar","county":"Lago de Maracaibo","countyCapital":false,"shallow":false,"availableForAll":false,"brLimit":5700,"portPoints":30,"portBattleStartTime":0,"portBattleType":"Medium","nonCapturable":false,"conquestMarksPension":1},{"id":200,"name":"San Timoteo","coordinates":{"x":5653,"y":5951},"angle":null,"textAnchor":"end","region":"South America","countyCapitalName":"Gibraltar","county":"Lago de Maracaibo","countyCapital":false,"shallow":false,"availableForAll":false,"brLimit":5700,"portPoints":30,"portBattleStartTime":9,"portBattleType":"Medium","nonCapturable":false,"conquestMarksPension":1},{"id":201,"name":"Gibraltar","coordinates":{"x":5638,"y":6082},"angle":null,"textAnchor":"end","region":"South America","countyCapitalName":"Gibraltar","county":"Lago de Maracaibo","countyCapital":true,"shallow":false,"availableForAll":false,"brLimit":5700,"portPoints":30,"portBattleStartTime":0,"portBattleType":"Large","nonCapturable":false,"conquestMarksPension":1},{"id":202,"name":"Encontrados","coordinates":{"x":5497,"y":6053},"angle":null,"textAnchor":"end","region":"South America","countyCapitalName":"Gibraltar","county":"Lago de Maracaibo","countyCapital":false,"shallow":false,"availableForAll":false,"brLimit":5700,"portPoints":30,"portBattleStartTime":0,"portBattleType":"Medium","nonCapturable":false,"conquestMarksPension":1},{"id":203,"name":"Perijá","coordinates":{"x":5421,"y":5940},"angle":null,"textAnchor":"end","region":"South America","countyCapitalName":"Gibraltar","county":"Lago de Maracaibo","countyCapital":false,"shallow":false,"availableForAll":false,"brLimit":5700,"portPoints":30,"portBattleStartTime":0,"portBattleType":"Medium","nonCapturable":false,"conquestMarksPension":1},{"id":204,"name":"Maracaibo","coordinates":{"x":5530,"y":5748},"angle":null,"textAnchor":"end","region":"South America","countyCapitalName":"Maracaibo","county":"Golfo de Maracaibo","countyCapital":true,"shallow":false,"availableForAll":false,"brLimit":20000,"portPoints":50,"portBattleStartTime":0,"portBattleType":"Large","nonCapturable":false,"conquestMarksPension":1},{"id":205,"name":"Sinamaica","coordinates":{"x":5485,"y":5627},"angle":null,"textAnchor":"end","region":"South America","countyCapitalName":"Maracaibo","county":"Golfo de Maracaibo","countyCapital":false,"shallow":false,"availableForAll":false,"brLimit":5700,"portPoints":30,"portBattleStartTime":8,"portBattleType":"Medium","nonCapturable":false,"conquestMarksPension":1},{"id":206,"name":"Cojoro","coordinates":{"x":5487,"y":5511},"angle":null,"textAnchor":"end","region":"South America","countyCapitalName":"Maracaibo","county":"Golfo de Maracaibo","countyCapital":false,"shallow":false,"availableForAll":false,"brLimit":5700,"portPoints":30,"portBattleStartTime":16,"portBattleType":"Medium","nonCapturable":false,"conquestMarksPension":1},{"id":207,"name":"Coquibacoa","coordinates":{"x":5625,"y":5353},"angle":null,"textAnchor":"end","region":"South America","countyCapitalName":"Santa Marta","county":"Santa Marta","countyCapital":false,"shallow":false,"availableForAll":true,"brLimit":5700,"portPoints":30,"portBattleStartTime":8,"portBattleType":"Medium","nonCapturable":false,"conquestMarksPension":1},{"id":208,"name":"Cabo de la Vela","coordinates":{"x":5409,"y":5374},"angle":null,"textAnchor":"end","region":"South America","countyCapitalName":"Santa Marta","county":"Santa Marta","countyCapital":false,"shallow":false,"availableForAll":false,"brLimit":5700,"portPoints":30,"portBattleStartTime":8,"portBattleType":"Large","nonCapturable":false,"conquestMarksPension":1},{"id":209,"name":"Río de la Hacha","coordinates":{"x":5251,"y":5529},"angle":null,"textAnchor":"end","region":"South America","countyCapitalName":"Santa Marta","county":"Santa Marta","countyCapital":false,"shallow":false,"availableForAll":false,"brLimit":20000,"portPoints":50,"portBattleStartTime":0,"portBattleType":"Medium","nonCapturable":false,"conquestMarksPension":1},{"id":210,"name":"Santa Marta","coordinates":{"x":4949,"y":5596},"angle":null,"textAnchor":"end","region":"South America","countyCapitalName":"Santa Marta","county":"Santa Marta","countyCapital":true,"shallow":false,"availableForAll":false,"brLimit":20000,"portPoints":50,"portBattleStartTime":0,"portBattleType":"Large","nonCapturable":false,"conquestMarksPension":1},{"id":211,"name":"Barranquilla","coordinates":{"x":4800,"y":5654},"angle":null,"textAnchor":"end","region":"South America","countyCapitalName":"Santa Marta","county":"Santa Marta","countyCapital":false,"shallow":false,"availableForAll":false,"brLimit":5700,"portPoints":30,"portBattleStartTime":0,"portBattleType":"Medium","nonCapturable":false,"conquestMarksPension":1},{"id":212,"name":"Cartagena de Indias","coordinates":{"x":4663,"y":5777},"angle":null,"textAnchor":"end","region":"South America","countyCapitalName":"Cartagena de Indias","county":"Cartagena","countyCapital":true,"shallow":false,"availableForAll":false,"brLimit":20000,"portPoints":55,"portBattleStartTime":0,"portBattleType":"Large","nonCapturable":false,"conquestMarksPension":3},{"id":213,"name":"Tolú","coordinates":{"x":4637,"y":6012},"angle":null,"textAnchor":"end","region":"South America","countyCapitalName":"Cartagena de Indias","county":"Cartagena","countyCapital":false,"shallow":false,"availableForAll":false,"brLimit":20000,"portPoints":50,"portBattleStartTime":0,"portBattleType":"Medium","nonCapturable":false,"conquestMarksPension":1},{"id":214,"name":"Dariena","coordinates":{"x":4322,"y":6386},"angle":null,"textAnchor":"end","region":"Central America","countyCapitalName":"","county":"","countyCapital":false,"shallow":false,"availableForAll":false,"brLimit":5700,"portPoints":30,"portBattleStartTime":0,"portBattleType":"Medium","nonCapturable":true,"conquestMarksPension":1},{"id":215,"name":"Buena Vista","coordinates":{"x":4352,"y":6285},"angle":null,"textAnchor":"end","region":"South America","countyCapitalName":"Cartagena de Indias","county":"Cartagena","countyCapital":false,"shallow":false,"availableForAll":false,"brLimit":5700,"portPoints":30,"portBattleStartTime":0,"portBattleType":"Medium","nonCapturable":false,"conquestMarksPension":1},{"id":216,"name":"Canalete","coordinates":{"x":4448,"y":6172},"angle":null,"textAnchor":"end","region":"South America","countyCapitalName":"Cartagena de Indias","county":"Cartagena","countyCapital":false,"shallow":false,"availableForAll":false,"brLimit":5700,"portPoints":30,"portBattleStartTime":0,"portBattleType":"Medium","nonCapturable":false,"conquestMarksPension":1},{"id":217,"name":"New Edinburgh","coordinates":{"x":4167,"y":6192},"angle":null,"textAnchor":"end","region":"Central America","countyCapitalName":"Portobelo","county":"Portobelo","countyCapital":false,"shallow":false,"availableForAll":false,"brLimit":5700,"portPoints":30,"portBattleStartTime":7,"portBattleType":"Large","nonCapturable":false,"conquestMarksPension":1},{"id":218,"name":"Playón","coordinates":{"x":4034,"y":6076},"angle":null,"textAnchor":"end","region":"Central America","countyCapitalName":"Portobelo","county":"Portobelo","countyCapital":false,"shallow":false,"availableForAll":false,"brLimit":5700,"portPoints":30,"portBattleStartTime":0,"portBattleType":"Medium","nonCapturable":false,"conquestMarksPension":1},{"id":219,"name":"Mandinga","coordinates":{"x":3849,"y":6043},"angle":null,"textAnchor":"end","region":"Central America","countyCapitalName":"Portobelo","county":"Portobelo","countyCapital":false,"shallow":false,"availableForAll":false,"brLimit":5700,"portPoints":30,"portBattleStartTime":0,"portBattleType":"Medium","nonCapturable":false,"conquestMarksPension":1},{"id":220,"name":"Portobelo","coordinates":{"x":3717,"y":6021},"angle":null,"textAnchor":"end","region":"Central America","countyCapitalName":"Portobelo","county":"Portobelo","countyCapital":true,"shallow":false,"availableForAll":false,"brLimit":20000,"portPoints":50,"portBattleStartTime":0,"portBattleType":"Large","nonCapturable":false,"conquestMarksPension":1},{"id":221,"name":"Chagres","coordinates":{"x":3643,"y":6077},"angle":null,"textAnchor":"end","region":"Central America","countyCapitalName":"Portobelo","county":"Portobelo","countyCapital":false,"shallow":false,"availableForAll":false,"brLimit":20000,"portPoints":50,"portBattleStartTime":0,"portBattleType":"Large","nonCapturable":false,"conquestMarksPension":1},{"id":222,"name":"Calobelo","coordinates":{"x":3470,"y":6168},"angle":null,"textAnchor":"end","region":"Central America","countyCapitalName":"Portobelo","county":"Portobelo","countyCapital":false,"shallow":false,"availableForAll":false,"brLimit":5700,"portPoints":30,"portBattleStartTime":0,"portBattleType":"Medium","nonCapturable":false,"conquestMarksPension":1},{"id":223,"name":"Concepción","coordinates":{"x":3294,"y":6199},"angle":null,"textAnchor":"end","region":"Central America","countyCapitalName":"Matina","county":"Costa Rica","countyCapital":false,"shallow":false,"availableForAll":false,"brLimit":5700,"portPoints":30,"portBattleStartTime":0,"portBattleType":"Medium","nonCapturable":false,"conquestMarksPension":1},{"id":224,"name":"Chiriquí","coordinates":{"x":3166,"y":6170},"angle":null,"textAnchor":"end","region":"Central America","countyCapitalName":"Matina","county":"Costa Rica","countyCapital":false,"shallow":true,"availableForAll":false,"brLimit":900,"portPoints":30,"portBattleStartTime":0,"portBattleType":"Small","nonCapturable":false,"conquestMarksPension":1},{"id":225,"name":"Almirante","coordinates":{"x":3112,"y":6102},"angle":null,"textAnchor":"end","region":"Central America","countyCapitalName":"Matina","county":"Costa Rica","countyCapital":false,"shallow":false,"availableForAll":false,"brLimit":5700,"portPoints":30,"portBattleStartTime":0,"portBattleType":"Medium","nonCapturable":false,"conquestMarksPension":1},{"id":226,"name":"Talamanca","coordinates":{"x":3029,"y":6008},"angle":null,"textAnchor":"end","region":"Central America","countyCapitalName":"Matina","county":"Costa Rica","countyCapital":false,"shallow":false,"availableForAll":false,"brLimit":5700,"portPoints":30,"portBattleStartTime":0,"portBattleType":"Medium","nonCapturable":false,"conquestMarksPension":1},{"id":227,"name":"Matina","coordinates":{"x":2910,"y":5884},"angle":null,"textAnchor":"end","region":"Central America","countyCapitalName":"Matina","county":"Costa Rica","countyCapital":true,"shallow":false,"availableForAll":false,"brLimit":10600,"portPoints":40,"portBattleStartTime":7,"portBattleType":"Large","nonCapturable":false,"conquestMarksPension":1},{"id":228,"name":"San Juan del Norte","coordinates":{"x":2798,"y":5705},"angle":null,"textAnchor":"end","region":"Central America","countyCapitalName":"Matina","county":"Costa Rica","countyCapital":false,"shallow":false,"availableForAll":false,"brLimit":10600,"portPoints":40,"portBattleStartTime":7,"portBattleType":"Medium","nonCapturable":false,"conquestMarksPension":1},{"id":229,"name":"Grindstone","coordinates":{"x":2781,"y":5586},"angle":null,"textAnchor":"end","region":"Central America","countyCapitalName":"Bluefields","county":"South Mosquito","countyCapital":false,"shallow":false,"availableForAll":false,"brLimit":5700,"portPoints":30,"portBattleStartTime":19,"portBattleType":"Medium","nonCapturable":false,"conquestMarksPension":1},{"id":230,"name":"Bluefields","coordinates":{"x":2783,"y":5443},"angle":null,"textAnchor":"end","region":"Central America","countyCapitalName":"Bluefields","county":"South Mosquito","countyCapital":true,"shallow":false,"availableForAll":false,"brLimit":20000,"portPoints":50,"portBattleStartTime":8,"portBattleType":"Large","nonCapturable":false,"conquestMarksPension":1},{"id":231,"name":"Great Corn","coordinates":{"x":2942,"y":5414},"angle":null,"textAnchor":"end","region":"Central America","countyCapitalName":"","county":"","countyCapital":false,"shallow":false,"availableForAll":false,"brLimit":5700,"portPoints":30,"portBattleStartTime":0,"portBattleType":"Medium","nonCapturable":true,"conquestMarksPension":1},{"id":232,"name":"Haulover","coordinates":{"x":2800,"y":5376},"angle":null,"textAnchor":"end","region":"Central America","countyCapitalName":"Bluefields","county":"South Mosquito","countyCapital":false,"shallow":true,"availableForAll":false,"brLimit":900,"portPoints":30,"portBattleStartTime":8,"portBattleType":"Small","nonCapturable":false,"conquestMarksPension":1},{"id":233,"name":"Great River","coordinates":{"x":2837,"y":5246},"angle":null,"textAnchor":"end","region":"Central America","countyCapitalName":"Bluefields","county":"South Mosquito","countyCapital":false,"shallow":false,"availableForAll":false,"brLimit":5700,"portPoints":30,"portBattleStartTime":8,"portBattleType":"Medium","nonCapturable":false,"conquestMarksPension":1},{"id":234,"name":"Prinzapolka","coordinates":{"x":2821,"y":5122},"angle":null,"textAnchor":"end","region":"Central America","countyCapitalName":"Brangman's Bluff","county":"Royal Mosquito","countyCapital":false,"shallow":false,"availableForAll":false,"brLimit":5700,"portPoints":30,"portBattleStartTime":0,"portBattleType":"Medium","nonCapturable":false,"conquestMarksPension":1},{"id":235,"name":"Old Providence","coordinates":{"x":3332,"y":5115},"angle":null,"textAnchor":"end","region":"Central America","countyCapitalName":"Old Providence","county":"Providencia","countyCapital":true,"shallow":false,"availableForAll":false,"brLimit":5700,"portPoints":30,"portBattleStartTime":9,"portBattleType":"Large","nonCapturable":false,"conquestMarksPension":1},{"id":236,"name":"San Andrés","coordinates":{"x":3261,"y":5308},"angle":null,"textAnchor":"end","region":"Central America","countyCapitalName":"Old Providence","county":"Providencia","countyCapital":false,"shallow":false,"availableForAll":false,"brLimit":5700,"portPoints":30,"portBattleStartTime":9,"portBattleType":"Medium","nonCapturable":false,"conquestMarksPension":1},{"id":237,"name":"Brangman’s Bluff","coordinates":{"x":2862,"y":4971},"angle":null,"textAnchor":"end","region":"Central America","countyCapitalName":"Brangman's Bluff","county":"Royal Mosquito","countyCapital":true,"shallow":false,"availableForAll":false,"brLimit":5700,"portPoints":30,"portBattleStartTime":9,"portBattleType":"Large","nonCapturable":false,"conquestMarksPension":1},{"id":238,"name":"Mosquito Cay","coordinates":{"x":2996,"y":4891},"angle":null,"textAnchor":"end","region":"Central America","countyCapitalName":"Brangman's Bluff","county":"Royal Mosquito","countyCapital":false,"shallow":true,"availableForAll":false,"brLimit":900,"portPoints":30,"portBattleStartTime":0,"portBattleType":"Small","nonCapturable":false,"conquestMarksPension":1},{"id":239,"name":"Sandy Bay","coordinates":{"x":2891,"y":4865},"angle":null,"textAnchor":"end","region":"Central America","countyCapitalName":"Brangman's Bluff","county":"Royal Mosquito","countyCapital":false,"shallow":false,"availableForAll":false,"brLimit":5700,"portPoints":30,"portBattleStartTime":0,"portBattleType":"Medium","nonCapturable":false,"conquestMarksPension":1},{"id":240,"name":"Gracias a Dios","coordinates":{"x":2913,"y":4737},"angle":null,"textAnchor":"end","region":"Central America","countyCapitalName":"Brangman's Bluff","county":"Royal Mosquito","countyCapital":false,"shallow":false,"availableForAll":false,"brLimit":5700,"portPoints":30,"portBattleStartTime":0,"portBattleType":"Medium","nonCapturable":false,"conquestMarksPension":1},{"id":241,"name":"Croata","coordinates":{"x":2752,"y":4673},"angle":null,"textAnchor":"end","region":"Central America","countyCapitalName":"Black River","county":"North Mosquito","countyCapital":false,"shallow":true,"availableForAll":false,"brLimit":900,"portPoints":30,"portBattleStartTime":0,"portBattleType":"Small","nonCapturable":false,"conquestMarksPension":1},{"id":242,"name":"Brewers","coordinates":{"x":2557,"y":4550},"angle":null,"textAnchor":"end","region":"Central America","countyCapitalName":"Black River","county":"North Mosquito","countyCapital":false,"shallow":true,"availableForAll":false,"brLimit":900,"portPoints":30,"portBattleStartTime":0,"portBattleType":"Small","nonCapturable":false,"conquestMarksPension":1},{"id":243,"name":"Black River","coordinates":{"x":2487,"y":4517},"angle":null,"textAnchor":"end","region":"Central America","countyCapitalName":"Black River","county":"North Mosquito","countyCapital":true,"shallow":false,"availableForAll":false,"brLimit":5700,"portPoints":30,"portBattleStartTime":0,"portBattleType":"Large","nonCapturable":false,"conquestMarksPension":1},{"id":244,"name":"Truxillo","coordinates":{"x":2237,"y":4531},"angle":null,"textAnchor":"end","region":"Central America","countyCapitalName":"Omoa","county":"Comayaqua","countyCapital":false,"shallow":false,"availableForAll":false,"brLimit":20000,"portPoints":50,"portBattleStartTime":8,"portBattleType":"Large","nonCapturable":false,"conquestMarksPension":1},{"id":245,"name":"Bonacca","coordinates":{"x":2429,"y":4340},"angle":null,"textAnchor":"end","region":"Central America","countyCapitalName":"Black River","county":"North Mosquito","countyCapital":false,"shallow":false,"availableForAll":false,"brLimit":5700,"portPoints":30,"portBattleStartTime":0,"portBattleType":"Medium","nonCapturable":false,"conquestMarksPension":1},{"id":246,"name":"Ruatan","coordinates":{"x":2269,"y":4367},"angle":null,"textAnchor":"end","region":"Central America","countyCapitalName":"Black River","county":"North Mosquito","countyCapital":false,"shallow":false,"availableForAll":false,"brLimit":5700,"portPoints":30,"portBattleStartTime":0,"portBattleType":"Large","nonCapturable":false,"conquestMarksPension":1},{"id":247,"name":"Útila","coordinates":{"x":2145,"y":4454},"angle":null,"textAnchor":"end","region":"Central America","countyCapitalName":"Black River","county":"North Mosquito","countyCapital":false,"shallow":true,"availableForAll":false,"brLimit":900,"portPoints":30,"portBattleStartTime":0,"portBattleType":"Small","nonCapturable":false,"conquestMarksPension":1},{"id":248,"name":"Morro Chico","coordinates":{"x":2050,"y":4565},"angle":null,"textAnchor":"end","region":"Central America","countyCapitalName":"Omoa","county":"Comayaqua","countyCapital":false,"shallow":false,"availableForAll":false,"brLimit":5700,"portPoints":30,"portBattleStartTime":0,"portBattleType":"Medium","nonCapturable":false,"conquestMarksPension":1},{"id":249,"name":"Triunfo de la Cruz","coordinates":{"x":1909,"y":4565},"angle":null,"textAnchor":"end","region":"Central America","countyCapitalName":"Omoa","county":"Comayaqua","countyCapital":false,"shallow":false,"availableForAll":false,"brLimit":10600,"portPoints":40,"portBattleStartTime":0,"portBattleType":"Medium","nonCapturable":false,"conquestMarksPension":1},{"id":250,"name":"Omoa","coordinates":{"x":1773,"y":4578},"angle":null,"textAnchor":"end","region":"Central America","countyCapitalName":"Omoa","county":"Comayaqua","countyCapital":true,"shallow":false,"availableForAll":false,"brLimit":10600,"portPoints":40,"portBattleStartTime":0,"portBattleType":"Large","nonCapturable":false,"conquestMarksPension":1},{"id":251,"name":"Santo Tomás","coordinates":{"x":1655,"y":4598},"angle":null,"textAnchor":"end","region":"Central America","countyCapitalName":"Omoa","county":"Comayaqua","countyCapital":false,"shallow":false,"availableForAll":false,"brLimit":10600,"portPoints":40,"portBattleStartTime":0,"portBattleType":"Medium","nonCapturable":false,"conquestMarksPension":1},{"id":252,"name":"Placentia","coordinates":{"x":1702,"y":4402},"angle":null,"textAnchor":"end","region":"Central America","countyCapitalName":"Belize","county":"Belize","countyCapital":false,"shallow":false,"availableForAll":false,"brLimit":5700,"portPoints":30,"portBattleStartTime":0,"portBattleType":"Medium","nonCapturable":false,"conquestMarksPension":1},{"id":253,"name":"Belize","coordinates":{"x":1733,"y":4165},"angle":null,"textAnchor":"end","region":"Central America","countyCapitalName":"Belize","county":"Belize","countyCapital":true,"shallow":false,"availableForAll":false,"brLimit":20000,"portPoints":50,"portBattleStartTime":0,"portBattleType":"Large","nonCapturable":false,"conquestMarksPension":1},{"id":254,"name":"Turneffe","coordinates":{"x":1965,"y":4161},"angle":null,"textAnchor":"end","region":"Central America","countyCapitalName":"Belize","county":"Belize","countyCapital":false,"shallow":false,"availableForAll":false,"brLimit":5700,"portPoints":30,"portBattleStartTime":0,"portBattleType":"Medium","nonCapturable":false,"conquestMarksPension":1},{"id":255,"name":"Ambergrease Cay","coordinates":{"x":1780,"y":3995},"angle":null,"textAnchor":"end","region":"Central America","countyCapitalName":"Belize","county":"Belize","countyCapital":false,"shallow":false,"availableForAll":false,"brLimit":5700,"portPoints":30,"portBattleStartTime":0,"portBattleType":"Medium","nonCapturable":false,"conquestMarksPension":1},{"id":256,"name":"Salamanca","coordinates":{"x":1709,"y":3855},"angle":null,"textAnchor":"end","region":"Yucatan","countyCapitalName":"Salamanca","county":"Bacalar","countyCapital":true,"shallow":false,"availableForAll":false,"brLimit":20000,"portPoints":50,"portBattleStartTime":1,"portBattleType":"Large","nonCapturable":false,"conquestMarksPension":1},{"id":257,"name":"Bensalem","coordinates":{"x":1921,"y":3945},"angle":null,"textAnchor":"end","region":"Central America","countyCapitalName":"Belize","county":"Belize","countyCapital":false,"shallow":false,"availableForAll":false,"brLimit":5700,"portPoints":30,"portBattleStartTime":0,"portBattleType":"Medium","nonCapturable":false,"conquestMarksPension":1},{"id":258,"name":"Chinchorro","coordinates":{"x":2048,"y":3782},"angle":null,"textAnchor":"end","region":"Yucatan","countyCapitalName":"Salamanca","county":"Bacalar","countyCapital":false,"shallow":true,"availableForAll":false,"brLimit":900,"portPoints":30,"portBattleStartTime":0,"portBattleType":"Small","nonCapturable":false,"conquestMarksPension":1},{"id":259,"name":"Congrios","coordinates":{"x":1889,"y":3699},"angle":null,"textAnchor":"end","region":"Yucatan","countyCapitalName":"Salamanca","county":"Bacalar","countyCapital":false,"shallow":false,"availableForAll":false,"brLimit":5700,"portPoints":30,"portBattleStartTime":0,"portBattleType":"Medium","nonCapturable":false,"conquestMarksPension":1},{"id":260,"name":"Asunción","coordinates":{"x":1844,"y":3661},"angle":null,"textAnchor":"end","region":"Yucatan","countyCapitalName":"Salamanca","county":"Bacalar","countyCapital":false,"shallow":true,"availableForAll":false,"brLimit":900,"portPoints":30,"portBattleStartTime":0,"portBattleType":"Small","nonCapturable":false,"conquestMarksPension":1},{"id":261,"name":"Tulum","coordinates":{"x":1913,"y":3504},"angle":null,"textAnchor":"end","region":"Yucatan","countyCapitalName":"Salamanca","county":"Bacalar","countyCapital":false,"shallow":false,"availableForAll":false,"brLimit":5700,"portPoints":30,"portBattleStartTime":0,"portBattleType":"Large","nonCapturable":false,"conquestMarksPension":1},{"id":262,"name":"Xpu Ha","coordinates":{"x":1993,"y":3405},"angle":null,"textAnchor":"end","region":"Yucatan","countyCapitalName":"Salamanca","county":"Bacalar","countyCapital":false,"shallow":false,"availableForAll":false,"brLimit":5700,"portPoints":30,"portBattleStartTime":1,"portBattleType":"Medium","nonCapturable":false,"conquestMarksPension":1},{"id":263,"name":"Tantun Cuzamil","coordinates":{"x":2135,"y":3490},"angle":null,"textAnchor":"end","region":"Yucatan","countyCapitalName":"Salamanca","county":"Bacalar","countyCapital":false,"shallow":false,"availableForAll":false,"brLimit":5700,"portPoints":30,"portBattleStartTime":1,"portBattleType":"Medium","nonCapturable":false,"conquestMarksPension":1},{"id":264,"name":"Conil","coordinates":{"x":1998,"y":3200},"angle":null,"textAnchor":"end","region":"Yucatan","countyCapitalName":"Sisal","county":"Mérida","countyCapital":false,"shallow":false,"availableForAll":false,"brLimit":5700,"portPoints":30,"portBattleStartTime":12,"portBattleType":"Medium","nonCapturable":false,"conquestMarksPension":1},{"id":265,"name":"El Cuyo","coordinates":{"x":1891,"y":3188},"angle":null,"textAnchor":"end","region":"Yucatan","countyCapitalName":"Sisal","county":"Mérida","countyCapital":false,"shallow":false,"availableForAll":false,"brLimit":5700,"portPoints":30,"portBattleStartTime":11,"portBattleType":"Medium","nonCapturable":false,"conquestMarksPension":1},{"id":266,"name":"Selam","coordinates":{"x":1646,"y":3222},"angle":null,"textAnchor":"end","region":"Yucatan","countyCapitalName":"Sisal","county":"Mérida","countyCapital":false,"shallow":false,"availableForAll":false,"brLimit":10600,"portPoints":40,"portBattleStartTime":0,"portBattleType":"Large","nonCapturable":false,"conquestMarksPension":1},{"id":267,"name":"Ysil","coordinates":{"x":1511,"y":3251},"angle":null,"textAnchor":"end","region":"Yucatan","countyCapitalName":"Sisal","county":"Mérida","countyCapital":false,"shallow":false,"availableForAll":false,"brLimit":10600,"portPoints":40,"portBattleStartTime":0,"portBattleType":"Medium","nonCapturable":false,"conquestMarksPension":1},{"id":268,"name":"Sisal","coordinates":{"x":1394,"y":3291},"angle":null,"textAnchor":"end","region":"Yucatan","countyCapitalName":"Sisal","county":"Mérida","countyCapital":true,"shallow":false,"availableForAll":false,"brLimit":20000,"portPoints":50,"portBattleStartTime":0,"portBattleType":"Large","nonCapturable":false,"conquestMarksPension":1},{"id":269,"name":"Campeche","coordinates":{"x":1274,"y":3606},"angle":null,"textAnchor":"end","region":"Yucatan","countyCapitalName":"Campeche","county":"Campeche","countyCapital":true,"shallow":false,"availableForAll":false,"brLimit":20000,"portPoints":55,"portBattleStartTime":10,"portBattleType":"Large","nonCapturable":false,"conquestMarksPension":3},{"id":270,"name":"Champotón","coordinates":{"x":1216,"y":3750},"angle":null,"textAnchor":"end","region":"Yucatan","countyCapitalName":"Campeche","county":"Campeche","countyCapital":false,"shallow":false,"availableForAll":false,"brLimit":5700,"portPoints":30,"portBattleStartTime":0,"portBattleType":"Medium","nonCapturable":false,"conquestMarksPension":1},{"id":271,"name":"Puerto Real","coordinates":{"x":1078,"y":3877},"angle":null,"textAnchor":"end","region":"Yucatan","countyCapitalName":"Campeche","county":"Campeche","countyCapital":false,"shallow":false,"availableForAll":false,"brLimit":5700,"portPoints":30,"portBattleStartTime":0,"portBattleType":"Large","nonCapturable":false,"conquestMarksPension":1},{"id":272,"name":"Santa Ana","coordinates":{"x":734,"y":4004},"angle":null,"textAnchor":"end","region":"Yucatan","countyCapitalName":"Campeche","county":"Campeche","countyCapital":false,"shallow":false,"availableForAll":false,"brLimit":5700,"portPoints":30,"portBattleStartTime":0,"portBattleType":"Medium","nonCapturable":false,"conquestMarksPension":1},{"id":273,"name":"Victoria","coordinates":{"x":880,"y":3930},"angle":null,"textAnchor":"end","region":"Yucatan","countyCapitalName":"Campeche","county":"Campeche","countyCapital":false,"shallow":false,"availableForAll":false,"brLimit":5700,"portPoints":30,"portBattleStartTime":0,"portBattleType":"Medium","nonCapturable":false,"conquestMarksPension":1},{"id":274,"name":"Espíritu Santo","coordinates":{"x":628,"y":4049},"angle":null,"textAnchor":"end","region":"Gulf","countyCapitalName":"Vera Cruz","county":"Vera Cruz","countyCapital":false,"shallow":false,"availableForAll":false,"brLimit":5700,"portPoints":30,"portBattleStartTime":0,"portBattleType":"Medium","nonCapturable":false,"conquestMarksPension":1},{"id":275,"name":"Alvarado","coordinates":{"x":437,"y":3907},"angle":null,"textAnchor":"end","region":"Gulf","countyCapitalName":"Vera Cruz","county":"Vera Cruz","countyCapital":false,"shallow":false,"availableForAll":false,"brLimit":10600,"portPoints":40,"portBattleStartTime":0,"portBattleType":"Medium","nonCapturable":false,"conquestMarksPension":1},{"id":276,"name":"Vera Cruz","coordinates":{"x":379,"y":3818},"angle":null,"textAnchor":"end","region":"Gulf","countyCapitalName":"Vera Cruz","county":"Vera Cruz","countyCapital":true,"shallow":false,"availableForAll":false,"brLimit":20000,"portPoints":55,"portBattleStartTime":11,"portBattleType":"Large","nonCapturable":false,"conquestMarksPension":3},{"id":277,"name":"Bernal","coordinates":{"x":325,"y":3678},"angle":null,"textAnchor":"end","region":"Gulf","countyCapitalName":"Vera Cruz","county":"Vera Cruz","countyCapital":false,"shallow":false,"availableForAll":false,"brLimit":5700,"portPoints":30,"portBattleStartTime":0,"portBattleType":"Medium","nonCapturable":false,"conquestMarksPension":1},{"id":278,"name":"Almeria","coordinates":{"x":256,"y":3563},"angle":null,"textAnchor":"end","region":"Gulf","countyCapitalName":"Vera Cruz","county":"Vera Cruz","countyCapital":false,"shallow":false,"availableForAll":false,"brLimit":5700,"portPoints":30,"portBattleStartTime":0,"portBattleType":"Medium","nonCapturable":false,"conquestMarksPension":1},{"id":279,"name":"Tuspan","coordinates":{"x":164,"y":3398},"angle":null,"textAnchor":"end","region":"Gulf","countyCapitalName":"Vera Cruz","county":"Vera Cruz","countyCapital":false,"shallow":false,"availableForAll":false,"brLimit":10600,"portPoints":40,"portBattleStartTime":0,"portBattleType":"Medium","nonCapturable":false,"conquestMarksPension":1},{"id":280,"name":"Tampico","coordinates":{"x":81,"y":3084},"angle":null,"textAnchor":"end","region":"Gulf","countyCapitalName":"Soto La Marina","county":"Nuevo Santander","countyCapital":false,"shallow":false,"availableForAll":false,"brLimit":10600,"portPoints":40,"portBattleStartTime":0,"portBattleType":"Medium","nonCapturable":false,"conquestMarksPension":1},{"id":281,"name":"Tamiagua","coordinates":{"x":154,"y":3284},"angle":null,"textAnchor":"end","region":"Gulf","countyCapitalName":"Soto La Marina","county":"Nuevo Santander","countyCapital":false,"shallow":false,"availableForAll":false,"brLimit":5700,"portPoints":30,"portBattleStartTime":0,"portBattleType":"Medium","nonCapturable":false,"conquestMarksPension":1},{"id":282,"name":"Soto La Marina","coordinates":{"x":93,"y":2714},"angle":null,"textAnchor":"end","region":"Gulf","countyCapitalName":"Soto La Marina","county":"Nuevo Santander","countyCapital":true,"shallow":false,"availableForAll":false,"brLimit":10600,"portPoints":40,"portBattleStartTime":0,"portBattleType":"Large","nonCapturable":false,"conquestMarksPension":1},{"id":283,"name":"San Fernando","coordinates":{"x":99,"y":2525},"angle":null,"textAnchor":"end","region":"Gulf","countyCapitalName":"Soto La Marina","county":"Nuevo Santander","countyCapital":false,"shallow":true,"availableForAll":false,"brLimit":1350,"portPoints":40,"portBattleStartTime":0,"portBattleType":"Small","nonCapturable":false,"conquestMarksPension":1},{"id":284,"name":"Esteros","coordinates":{"x":203,"y":2162},"angle":null,"textAnchor":"end","region":"Gulf","countyCapitalName":"Soto La Marina","county":"Nuevo Santander","countyCapital":false,"shallow":false,"availableForAll":false,"brLimit":10600,"portPoints":40,"portBattleStartTime":11,"portBattleType":"Medium","nonCapturable":false,"conquestMarksPension":1},{"id":285,"name":"Aransas","coordinates":{"x":236,"y":1740},"angle":null,"textAnchor":"end","region":"Gulf","countyCapitalName":"La Bahía","county":"Texas","countyCapital":false,"shallow":false,"availableForAll":false,"brLimit":5700,"portPoints":30,"portBattleStartTime":5,"portBattleType":"Medium","nonCapturable":false,"conquestMarksPension":1},{"id":286,"name":"El Rancho","coordinates":{"x":176,"y":1948},"angle":null,"textAnchor":"end","region":"Gulf","countyCapitalName":"","county":"","countyCapital":false,"shallow":false,"availableForAll":false,"brLimit":5700,"portPoints":30,"portBattleStartTime":0,"portBattleType":"Medium","nonCapturable":true,"conquestMarksPension":1},{"id":287,"name":"La Bahía","coordinates":{"x":358,"y":1547},"angle":null,"textAnchor":"end","region":"Gulf","countyCapitalName":"La Bahía","county":"Texas","countyCapital":true,"shallow":true,"availableForAll":false,"brLimit":900,"portPoints":30,"portBattleStartTime":6,"portBattleType":"Small","nonCapturable":false,"conquestMarksPension":1},{"id":288,"name":"San Luis","coordinates":{"x":576,"y":1453},"angle":null,"textAnchor":"end","region":"Gulf","countyCapitalName":"La Bahía","county":"Texas","countyCapital":false,"shallow":false,"availableForAll":false,"brLimit":5700,"portPoints":30,"portBattleStartTime":0,"portBattleType":"Large","nonCapturable":false,"conquestMarksPension":1},{"id":289,"name":"Ahumada","coordinates":{"x":639,"y":1294},"angle":null,"textAnchor":"end","region":"Gulf","countyCapitalName":"La Bahía","county":"Texas","countyCapital":false,"shallow":true,"availableForAll":false,"brLimit":900,"portPoints":30,"portBattleStartTime":0,"portBattleType":"Small","nonCapturable":false,"conquestMarksPension":1},{"id":290,"name":"Sabina","coordinates":{"x":856,"y":1267},"angle":null,"textAnchor":"end","region":"Gulf","countyCapitalName":"La Bahía","county":"Texas","countyCapital":false,"shallow":false,"availableForAll":false,"brLimit":5700,"portPoints":30,"portBattleStartTime":0,"portBattleType":"Medium","nonCapturable":false,"conquestMarksPension":1},{"id":291,"name":"Calcasieu","coordinates":{"x":953,"y":1246},"angle":null,"textAnchor":"end","region":"Gulf","countyCapitalName":"La Bahía","county":"Texas","countyCapital":false,"shallow":false,"availableForAll":false,"brLimit":5700,"portPoints":30,"portBattleStartTime":0,"portBattleType":"Medium","nonCapturable":false,"conquestMarksPension":1},{"id":292,"name":"Constance","coordinates":{"x":1088,"y":1281},"angle":null,"textAnchor":"end","region":"Gulf","countyCapitalName":"Nouvelle-Orléans","county":"Louisiane","countyCapital":false,"shallow":false,"availableForAll":false,"brLimit":5700,"portPoints":30,"portBattleStartTime":0,"portBattleType":"Medium","nonCapturable":false,"conquestMarksPension":1},{"id":293,"name":"Vermiou","coordinates":{"x":1195,"y":1253},"angle":null,"textAnchor":"end","region":"Gulf","countyCapitalName":"Nouvelle-Orléans","county":"Louisiane","countyCapital":false,"shallow":false,"availableForAll":false,"brLimit":5700,"portPoints":30,"portBattleStartTime":0,"portBattleType":"Medium","nonCapturable":false,"conquestMarksPension":1},{"id":294,"name":"Atchafalaya","coordinates":{"x":1339,"y":1341},"angle":null,"textAnchor":"end","region":"Gulf","countyCapitalName":"Nouvelle-Orléans","county":"Louisiane","countyCapital":false,"shallow":false,"availableForAll":false,"brLimit":5700,"portPoints":30,"portBattleStartTime":0,"portBattleType":"Medium","nonCapturable":false,"conquestMarksPension":1},{"id":295,"name":"Terrebonne","coordinates":{"x":1482,"y":1360},"angle":null,"textAnchor":"end","region":"Gulf","countyCapitalName":"Nouvelle-Orléans","county":"Louisiane","countyCapital":false,"shallow":false,"availableForAll":false,"brLimit":5700,"portPoints":30,"portBattleStartTime":0,"portBattleType":"Medium","nonCapturable":false,"conquestMarksPension":1},{"id":296,"name":"Saint-Malo","coordinates":{"x":1687,"y":1194},"angle":null,"textAnchor":"end","region":"Gulf","countyCapitalName":"Penzacola","county":"Florida Occidental","countyCapital":false,"shallow":false,"availableForAll":false,"brLimit":5700,"portPoints":30,"portBattleStartTime":0,"portBattleType":"Medium","nonCapturable":false,"conquestMarksPension":1},{"id":297,"name":"Nouvelle-Orléans","coordinates":{"x":1783,"y":1368},"angle":null,"textAnchor":"end","region":"Gulf","countyCapitalName":"Nouvelle-Orléans","county":"Louisiane","countyCapital":true,"shallow":false,"availableForAll":false,"brLimit":20000,"portPoints":55,"portBattleStartTime":6,"portBattleType":"Large","nonCapturable":false,"conquestMarksPension":3},{"id":298,"name":"Barataria","coordinates":{"x":1607,"y":1308},"angle":null,"textAnchor":"end","region":"Gulf","countyCapitalName":"Nouvelle-Orléans","county":"Louisiane","countyCapital":false,"shallow":false,"availableForAll":false,"brLimit":5700,"portPoints":30,"portBattleStartTime":0,"portBattleType":"Medium","nonCapturable":false,"conquestMarksPension":1},{"id":299,"name":"Biloxi","coordinates":{"x":1835,"y":1070},"angle":null,"textAnchor":"end","region":"Gulf","countyCapitalName":"Penzacola","county":"Florida Occidental","countyCapital":false,"shallow":false,"availableForAll":false,"brLimit":10600,"portPoints":40,"portBattleStartTime":0,"portBattleType":"Medium","nonCapturable":false,"conquestMarksPension":1},{"id":300,"name":"Mobile","coordinates":{"x":2007,"y":1004},"angle":null,"textAnchor":"end","region":"Gulf","countyCapitalName":"Penzacola","county":"Florida Occidental","countyCapital":false,"shallow":false,"availableForAll":false,"brLimit":10600,"portPoints":40,"portBattleStartTime":0,"portBattleType":"Large","nonCapturable":false,"conquestMarksPension":1},{"id":301,"name":"Penzacola","coordinates":{"x":2170,"y":1061},"angle":null,"textAnchor":"end","region":"Gulf","countyCapitalName":"Penzacola","county":"Florida Occidental","countyCapital":true,"shallow":false,"availableForAll":false,"brLimit":10600,"portPoints":40,"portBattleStartTime":5,"portBattleType":"Large","nonCapturable":false,"conquestMarksPension":1},{"id":302,"name":"Santa Rosa","coordinates":{"x":2301,"y":1057},"angle":null,"textAnchor":"end","region":"Gulf","countyCapitalName":"Penzacola","county":"Florida Occidental","countyCapital":false,"shallow":false,"availableForAll":false,"brLimit":5700,"portPoints":30,"portBattleStartTime":0,"portBattleType":"Medium","nonCapturable":false,"conquestMarksPension":1},{"id":303,"name":"San José","coordinates":{"x":2553,"y":1183},"angle":null,"textAnchor":"end","region":"Gulf","countyCapitalName":"Penzacola","county":"Florida Occidental","countyCapital":false,"shallow":false,"availableForAll":false,"brLimit":5700,"portPoints":30,"portBattleStartTime":0,"portBattleType":"Medium","nonCapturable":false,"conquestMarksPension":1},{"id":304,"name":"Apalachicola","coordinates":{"x":2630,"y":1216},"angle":null,"textAnchor":"end","region":"Gulf","countyCapitalName":"San Marcos","county":"Apalache","countyCapital":false,"shallow":false,"availableForAll":false,"brLimit":5700,"portPoints":30,"portBattleStartTime":0,"portBattleType":"Medium","nonCapturable":false,"conquestMarksPension":1},{"id":305,"name":"San Marcos","coordinates":{"x":2787,"y":1125},"angle":null,"textAnchor":"end","region":"Gulf","countyCapitalName":"San Marcos","county":"Apalache","countyCapital":true,"shallow":true,"availableForAll":false,"brLimit":1350,"portPoints":40,"portBattleStartTime":6,"portBattleType":"Small","nonCapturable":false,"conquestMarksPension":1},{"id":306,"name":"Hitten Hatcha","coordinates":{"x":2954,"y":1221},"angle":null,"textAnchor":"end","region":"Gulf","countyCapitalName":"San Marcos","county":"Apalache","countyCapital":false,"shallow":true,"availableForAll":false,"brLimit":900,"portPoints":30,"portBattleStartTime":0,"portBattleType":"Small","nonCapturable":false,"conquestMarksPension":1},{"id":307,"name":"Las Sabinas","coordinates":{"x":3023,"y":1353},"angle":null,"textAnchor":"end","region":"Gulf","countyCapitalName":"San Marcos","county":"Apalache","countyCapital":false,"shallow":true,"availableForAll":false,"brLimit":900,"portPoints":30,"portBattleStartTime":0,"portBattleType":"Small","nonCapturable":false,"conquestMarksPension":1},{"id":308,"name":"Cayo del Anclote","coordinates":{"x":3071,"y":1572},"angle":null,"textAnchor":"end","region":"Gulf","countyCapitalName":"Gasparilla","county":"Costa de los Calos","countyCapital":false,"shallow":false,"availableForAll":false,"brLimit":5700,"portPoints":30,"portBattleStartTime":0,"portBattleType":"Medium","nonCapturable":false,"conquestMarksPension":1},{"id":309,"name":"Tampa","coordinates":{"x":3150,"y":1660},"angle":null,"textAnchor":"end","region":"Gulf","countyCapitalName":"Gasparilla","county":"Costa de los Calos","countyCapital":false,"shallow":false,"availableForAll":false,"brLimit":5700,"portPoints":30,"portBattleStartTime":6,"portBattleType":"Large","nonCapturable":false,"conquestMarksPension":1},{"id":310,"name":"Sarazota","coordinates":{"x":3131,"y":1789},"angle":null,"textAnchor":"end","region":"Gulf","countyCapitalName":"Gasparilla","county":"Costa de los Calos","countyCapital":false,"shallow":false,"availableForAll":false,"brLimit":5700,"portPoints":30,"portBattleStartTime":9,"portBattleType":"Medium","nonCapturable":false,"conquestMarksPension":1},{"id":311,"name":"Gasparilla","coordinates":{"x":3195,"y":1938},"angle":null,"textAnchor":"end","region":"Gulf","countyCapitalName":"Gasparilla","county":"Costa de los Calos","countyCapital":true,"shallow":false,"availableForAll":false,"brLimit":5700,"portPoints":30,"portBattleStartTime":6,"portBattleType":"Large","nonCapturable":false,"conquestMarksPension":1},{"id":312,"name":"Manataca","coordinates":{"x":3320,"y":2129},"angle":null,"textAnchor":"end","region":"Gulf","countyCapitalName":"Gasparilla","county":"Costa de los Calos","countyCapital":false,"shallow":false,"availableForAll":false,"brLimit":5700,"portPoints":30,"portBattleStartTime":8,"portBattleType":"Medium","nonCapturable":false,"conquestMarksPension":1},{"id":313,"name":"Key West","coordinates":{"x":3235,"y":2464},"angle":null,"textAnchor":"end","region":"Gulf","countyCapitalName":"Islamorada","county":"Los Martires","countyCapital":false,"shallow":false,"availableForAll":false,"brLimit":5700,"portPoints":30,"portBattleStartTime":12,"portBattleType":"Medium","nonCapturable":false,"conquestMarksPension":1},{"id":314,"name":"Las Tortugas","coordinates":{"x":2925,"y":2418},"angle":null,"textAnchor":"end","region":"Gulf","countyCapitalName":"Islamorada","county":"Los Martires","countyCapital":false,"shallow":false,"availableForAll":false,"brLimit":5700,"portPoints":30,"portBattleStartTime":12,"portBattleType":"Medium","nonCapturable":false,"conquestMarksPension":1},{"id":315,"name":"Cayo Vacas","coordinates":{"x":3436,"y":2412},"angle":null,"textAnchor":"end","region":"Gulf","countyCapitalName":"Islamorada","county":"Los Martires","countyCapital":false,"shallow":true,"availableForAll":false,"brLimit":900,"portPoints":30,"portBattleStartTime":12,"portBattleType":"Small","nonCapturable":false,"conquestMarksPension":1},{"id":316,"name":"Islamorada","coordinates":{"x":3542,"y":2363},"angle":null,"textAnchor":"end","region":"Gulf","countyCapitalName":"Islamorada","county":"Los Martires","countyCapital":true,"shallow":false,"availableForAll":false,"brLimit":5700,"portPoints":30,"portBattleStartTime":12,"portBattleType":"Large","nonCapturable":false,"conquestMarksPension":1},{"id":317,"name":"Cayo Largo","coordinates":{"x":3604,"y":2276},"angle":null,"textAnchor":"end","region":"Gulf","countyCapitalName":"Islamorada","county":"Los Martires","countyCapital":false,"shallow":true,"availableForAll":false,"brLimit":900,"portPoints":30,"portBattleStartTime":0,"portBattleType":"Small","nonCapturable":false,"conquestMarksPension":1},{"id":318,"name":"Cabo Cañaveral","coordinates":{"x":3565,"y":1508},"angle":null,"textAnchor":"end","region":"Atlantic Coast","countyCapitalName":"Ays","county":"Costa del Fuego","countyCapital":false,"shallow":false,"availableForAll":false,"brLimit":5700,"portPoints":30,"portBattleStartTime":0,"portBattleType":"Medium","nonCapturable":false,"conquestMarksPension":1},{"id":319,"name":"Río Seco","coordinates":{"x":3666,"y":2024},"angle":null,"textAnchor":"end","region":"Atlantic Coast","countyCapitalName":"Ays","county":"Costa del Fuego","countyCapital":false,"shallow":false,"availableForAll":false,"brLimit":5700,"portPoints":30,"portBattleStartTime":8,"portBattleType":"Medium","nonCapturable":false,"conquestMarksPension":1},{"id":320,"name":"Jobe","coordinates":{"x":3669,"y":1872},"angle":null,"textAnchor":"end","region":"Atlantic Coast","countyCapitalName":"Ays","county":"Costa del Fuego","countyCapital":false,"shallow":false,"availableForAll":false,"brLimit":5700,"portPoints":30,"portBattleStartTime":4,"portBattleType":"Medium","nonCapturable":false,"conquestMarksPension":1},{"id":321,"name":"Ays","coordinates":{"x":3635,"y":1772},"angle":null,"textAnchor":"end","region":"Atlantic Coast","countyCapitalName":"Ays","county":"Costa del Fuego","countyCapital":true,"shallow":false,"availableForAll":false,"brLimit":5700,"portPoints":30,"portBattleStartTime":15,"portBattleType":"Large","nonCapturable":false,"conquestMarksPension":1},{"id":322,"name":"San Sebastian","coordinates":{"x":3591,"y":1655},"angle":null,"textAnchor":"end","region":"Atlantic Coast","countyCapitalName":"Ays","county":"Costa del Fuego","countyCapital":false,"shallow":false,"availableForAll":false,"brLimit":5700,"portPoints":30,"portBattleStartTime":13,"portBattleType":"Medium","nonCapturable":false,"conquestMarksPension":1},{"id":323,"name":"Cayo Biscayno","coordinates":{"x":3647,"y":2172},"angle":null,"textAnchor":"end","region":"Atlantic Coast","countyCapitalName":"Ays","county":"Costa del Fuego","countyCapital":false,"shallow":false,"availableForAll":false,"brLimit":5700,"portPoints":30,"portBattleStartTime":0,"portBattleType":"Large","nonCapturable":false,"conquestMarksPension":1},{"id":324,"name":"New Smyrna","coordinates":{"x":3495,"y":1369},"angle":null,"textAnchor":"end","region":"Atlantic Coast","countyCapitalName":"San Agustín","county":"Timucua","countyCapital":false,"shallow":false,"availableForAll":false,"brLimit":5700,"portPoints":30,"portBattleStartTime":0,"portBattleType":"Large","nonCapturable":false,"conquestMarksPension":1},{"id":325,"name":"Ayamonte","coordinates":{"x":3451,"y":1279},"angle":null,"textAnchor":"end","region":"Atlantic Coast","countyCapitalName":"San Agustín","county":"Timucua","countyCapital":false,"shallow":false,"availableForAll":false,"brLimit":5700,"portPoints":30,"portBattleStartTime":0,"portBattleType":"Medium","nonCapturable":false,"conquestMarksPension":1},{"id":326,"name":"San Agustín","coordinates":{"x":3412,"y":1157},"angle":null,"textAnchor":"end","region":"Atlantic Coast","countyCapitalName":"San Agustín","county":"Timucua","countyCapital":true,"shallow":false,"availableForAll":false,"brLimit":20000,"portPoints":50,"portBattleStartTime":17,"portBattleType":"Large","nonCapturable":false,"conquestMarksPension":1},{"id":327,"name":"San Mateo","coordinates":{"x":3391,"y":1058},"angle":null,"textAnchor":"end","region":"Atlantic Coast","countyCapitalName":"San Agustín","county":"Timucua","countyCapital":false,"shallow":false,"availableForAll":false,"brLimit":5700,"portPoints":30,"portBattleStartTime":0,"portBattleType":"Medium","nonCapturable":false,"conquestMarksPension":1},{"id":328,"name":"Sunbury","coordinates":{"x":3450,"y":731},"angle":null,"textAnchor":"end","region":"Atlantic Coast","countyCapitalName":"Savannah","county":"Georgia","countyCapital":false,"shallow":false,"availableForAll":false,"brLimit":10600,"portPoints":40,"portBattleStartTime":0,"portBattleType":"Medium","nonCapturable":false,"conquestMarksPension":1},{"id":329,"name":"Brunswick","coordinates":{"x":3393,"y":865},"angle":null,"textAnchor":"end","region":"Atlantic Coast","countyCapitalName":"Savannah","county":"Georgia","countyCapital":false,"shallow":false,"availableForAll":false,"brLimit":10600,"portPoints":40,"portBattleStartTime":0,"portBattleType":"Medium","nonCapturable":false,"conquestMarksPension":1},{"id":330,"name":"Saint Marys","coordinates":{"x":3378,"y":963},"angle":null,"textAnchor":"end","region":"Atlantic Coast","countyCapitalName":"Savannah","county":"Georgia","countyCapital":false,"shallow":false,"availableForAll":false,"brLimit":5700,"portPoints":30,"portBattleStartTime":0,"portBattleType":"Medium","nonCapturable":false,"conquestMarksPension":1},{"id":331,"name":"Savannah","coordinates":{"x":3501,"y":643},"angle":null,"textAnchor":"end","region":"Atlantic Coast","countyCapitalName":"Savannah","county":"Georgia","countyCapital":true,"shallow":false,"availableForAll":false,"brLimit":10600,"portPoints":40,"portBattleStartTime":0,"portBattleType":"Large","nonCapturable":false,"conquestMarksPension":1},{"id":332,"name":"Beaufort","coordinates":{"x":3549,"y":586},"angle":null,"textAnchor":"end","region":"Atlantic Coast","countyCapitalName":"Charleston","county":"South Carolina","countyCapital":false,"shallow":false,"availableForAll":false,"brLimit":10600,"portPoints":40,"portBattleStartTime":0,"portBattleType":"Medium","nonCapturable":true,"conquestMarksPension":1},{"id":333,"name":"Charleston","coordinates":{"x":3689,"y":448},"angle":null,"textAnchor":"end","region":"Atlantic Coast","countyCapitalName":"Charleston","county":"South Carolina","countyCapital":true,"shallow":false,"availableForAll":false,"brLimit":20000,"portPoints":50,"portBattleStartTime":0,"portBattleType":"Large","nonCapturable":true,"conquestMarksPension":1},{"id":334,"name":"Georgetown","coordinates":{"x":3873,"y":370},"angle":null,"textAnchor":"end","region":"Atlantic Coast","countyCapitalName":"Charleston","county":"South Carolina","countyCapital":false,"shallow":false,"availableForAll":false,"brLimit":20000,"portPoints":50,"portBattleStartTime":0,"portBattleType":"Medium","nonCapturable":true,"conquestMarksPension":1},{"id":335,"name":"Wilmington","coordinates":{"x":4155,"y":144},"angle":null,"textAnchor":"end","region":"Atlantic Coast","countyCapitalName":"Wilmington","county":"North Carolina","countyCapital":true,"shallow":false,"availableForAll":false,"brLimit":20000,"portPoints":50,"portBattleStartTime":0,"portBattleType":"Large","nonCapturable":true,"conquestMarksPension":1},{"id":336,"name":"Swannsborough","coordinates":{"x":4328,"y":16},"angle":null,"textAnchor":"end","region":"Atlantic Coast","countyCapitalName":"Wilmington","county":"North Carolina","countyCapital":false,"shallow":false,"availableForAll":false,"brLimit":5700,"portPoints":30,"portBattleStartTime":0,"portBattleType":"Medium","nonCapturable":true,"conquestMarksPension":1},{"id":337,"name":"Arcas","coordinates":{"x":1003,"y":3478},"angle":null,"textAnchor":"end","region":"Yucatan","countyCapitalName":"Arenas","county":"Cayos del Golfo","countyCapital":false,"shallow":true,"availableForAll":false,"brLimit":900,"portPoints":30,"portBattleStartTime":0,"portBattleType":"Small","nonCapturable":false,"conquestMarksPension":1},{"id":338,"name":"Triangulo","coordinates":{"x":1015,"y":3259},"angle":null,"textAnchor":"end","region":"Yucatan","countyCapitalName":"Arenas","county":"Cayos del Golfo","countyCapital":false,"shallow":true,"availableForAll":false,"brLimit":900,"portPoints":30,"portBattleStartTime":0,"portBattleType":"Small","nonCapturable":false,"conquestMarksPension":1},{"id":339,"name":"Baxo Nuevo","coordinates":{"x":945,"y":3075},"angle":null,"textAnchor":"end","region":"Yucatan","countyCapitalName":"Arenas","county":"Cayos del Golfo","countyCapital":false,"shallow":true,"availableForAll":false,"brLimit":900,"portPoints":30,"portBattleStartTime":0,"portBattleType":"Small","nonCapturable":false,"conquestMarksPension":1},{"id":340,"name":"Arenas","coordinates":{"x":1094,"y":3000},"angle":null,"textAnchor":"end","region":"Yucatan","countyCapitalName":"Arenas","county":"Cayos del Golfo","countyCapital":true,"shallow":true,"availableForAll":false,"brLimit":900,"portPoints":30,"portBattleStartTime":0,"portBattleType":"Small","nonCapturable":false,"conquestMarksPension":1},{"id":341,"name":"La Bermeja","coordinates":{"x":1088,"y":2865},"angle":null,"textAnchor":"end","region":"Yucatan","countyCapitalName":"Arenas","county":"Cayos del Golfo","countyCapital":false,"shallow":true,"availableForAll":false,"brLimit":900,"portPoints":30,"portBattleStartTime":0,"portBattleType":"Small","nonCapturable":false,"conquestMarksPension":1},{"id":342,"name":"Alacranes","coordinates":{"x":1612,"y":2792},"angle":null,"textAnchor":"end","region":"Yucatan","countyCapitalName":"Arenas","county":"Cayos del Golfo","countyCapital":false,"shallow":true,"availableForAll":false,"brLimit":900,"portPoints":30,"portBattleStartTime":0,"portBattleType":"Small","nonCapturable":false,"conquestMarksPension":1},{"id":343,"name":"Tumbado","coordinates":{"x":2161,"y":3061},"angle":null,"textAnchor":"end","region":"Yucatan","countyCapitalName":"","county":"","countyCapital":false,"shallow":false,"availableForAll":false,"brLimit":5700,"portPoints":30,"portBattleStartTime":0,"portBattleType":"Medium","nonCapturable":true,"conquestMarksPension":1},{"id":344,"name":"Conttoy","coordinates":{"x":2152,"y":3119},"angle":null,"textAnchor":"end","region":"Yucatan","countyCapitalName":"Sisal","county":"Mérida","countyCapital":false,"shallow":false,"availableForAll":false,"brLimit":5700,"portPoints":30,"portBattleStartTime":8,"portBattleType":"Medium","nonCapturable":false,"conquestMarksPension":1},{"id":345,"name":"Mugeres","coordinates":{"x":2159,"y":3173},"angle":null,"textAnchor":"end","region":"Yucatan","countyCapitalName":"Sisal","county":"Mérida","countyCapital":false,"shallow":false,"availableForAll":false,"brLimit":5700,"portPoints":30,"portBattleStartTime":8,"portBattleType":"Medium","nonCapturable":false,"conquestMarksPension":1},{"id":346,"name":"Placer","coordinates":{"x":2804,"y":3793},"angle":null,"textAnchor":"end","region":"Jamaica","countyCapitalName":"George Town","county":"Caymans","countyCapital":false,"shallow":false,"availableForAll":false,"brLimit":5700,"portPoints":30,"portBattleStartTime":0,"portBattleType":"Medium","nonCapturable":false,"conquestMarksPension":1},{"id":347,"name":"Misteriosa","coordinates":{"x":2942,"y":3902},"angle":null,"textAnchor":"end","region":"Jamaica","countyCapitalName":"George Town","county":"Caymans","countyCapital":false,"shallow":false,"availableForAll":false,"brLimit":5700,"portPoints":30,"portBattleStartTime":0,"portBattleType":"Medium","nonCapturable":false,"conquestMarksPension":1},{"id":348,"name":"Santanillas","coordinates":{"x":2865,"y":4073},"angle":null,"textAnchor":"end","region":"Jamaica","countyCapitalName":"George Town","county":"Caymans","countyCapital":false,"shallow":false,"availableForAll":false,"brLimit":5700,"portPoints":30,"portBattleStartTime":0,"portBattleType":"Medium","nonCapturable":false,"conquestMarksPension":1},{"id":349,"name":"Serrana","coordinates":{"x":3714,"y":4674},"angle":null,"textAnchor":"end","region":"Central America","countyCapitalName":"Old Providence","county":"Providencia","countyCapital":false,"shallow":true,"availableForAll":false,"brLimit":900,"portPoints":30,"portBattleStartTime":0,"portBattleType":"Small","nonCapturable":false,"conquestMarksPension":1},{"id":350,"name":"Bone Cay","coordinates":{"x":3942,"y":4378},"angle":null,"textAnchor":"end","region":"Jamaica","countyCapitalName":"Pedro Cay","county":"South Cays","countyCapital":false,"shallow":true,"availableForAll":false,"brLimit":900,"portPoints":30,"portBattleStartTime":0,"portBattleType":"Small","nonCapturable":false,"conquestMarksPension":1},{"id":351,"name":"Bugle Cay","coordinates":{"x":4058,"y":4484},"angle":null,"textAnchor":"end","region":"Jamaica","countyCapitalName":"Pedro Cay","county":"South Cays","countyCapital":false,"shallow":true,"availableForAll":false,"brLimit":900,"portPoints":30,"portBattleStartTime":0,"portBattleType":"Small","nonCapturable":false,"conquestMarksPension":1},{"id":352,"name":"Pedro Cay","coordinates":{"x":4189,"y":4218},"angle":null,"textAnchor":"end","region":"Jamaica","countyCapitalName":"Pedro Cay","county":"South Cays","countyCapital":true,"shallow":true,"availableForAll":false,"brLimit":900,"portPoints":30,"portBattleStartTime":0,"portBattleType":"Small","nonCapturable":false,"conquestMarksPension":1},{"id":353,"name":"Somerset","coordinates":{"x":7290,"y":156},"angle":null,"textAnchor":"end","region":"Atlantic","countyCapitalName":"Saint George's Town","county":"Bermuda","countyCapital":false,"shallow":false,"availableForAll":false,"brLimit":5700,"portPoints":30,"portBattleStartTime":0,"portBattleType":"Medium","nonCapturable":false,"conquestMarksPension":1},{"id":354,"name":"Flatts","coordinates":{"x":7381,"y":140},"angle":null,"textAnchor":"end","region":"Atlantic","countyCapitalName":"Saint George's Town","county":"Bermuda","countyCapital":false,"shallow":false,"availableForAll":false,"brLimit":5700,"portPoints":30,"portBattleStartTime":0,"portBattleType":"Medium","nonCapturable":false,"conquestMarksPension":1},{"id":355,"name":"Saint George’s Town","coordinates":{"x":7429,"y":88},"angle":null,"textAnchor":"end","region":"Atlantic","countyCapitalName":"Saint George's Town","county":"Bermuda","countyCapital":true,"shallow":false,"availableForAll":false,"brLimit":20000,"portPoints":50,"portBattleStartTime":5,"portBattleType":"Large","nonCapturable":false,"conquestMarksPension":1},{"id":356,"name":"North Inlet","coordinates":{"x":5646,"y":1072},"angle":null,"textAnchor":"end","region":"Atlantic","countyCapitalName":"Kidd's Harbour","county":"Kidd’s Island","countyCapital":false,"shallow":false,"availableForAll":false,"brLimit":5700,"portPoints":30,"portBattleStartTime":0,"portBattleType":"Medium","nonCapturable":false,"conquestMarksPension":1},{"id":357,"name":"Kidd’s Harbour","coordinates":{"x":5678,"y":1142},"angle":null,"textAnchor":"end","region":"Atlantic","countyCapitalName":"Kidd's Harbour","county":"Kidd’s Island","countyCapital":true,"shallow":false,"availableForAll":false,"brLimit":5700,"portPoints":30,"portBattleStartTime":0,"portBattleType":"Large","nonCapturable":false,"conquestMarksPension":1},{"id":358,"name":"Mangrove Cay","coordinates":{"x":4029,"y":1832},"angle":null,"textAnchor":"end","region":"Bahamas","countyCapitalName":"West End","county":"Grand Bahama","countyCapital":false,"shallow":true,"availableForAll":false,"brLimit":900,"portPoints":30,"portBattleStartTime":0,"portBattleType":"Small","nonCapturable":false,"conquestMarksPension":1},{"id":359,"name":"Frozen Cay","coordinates":{"x":4146,"y":2218},"angle":null,"textAnchor":"end","region":"Bahamas","countyCapitalName":"Morgan's Bluff","county":"Andros","countyCapital":false,"shallow":true,"availableForAll":false,"brLimit":900,"portPoints":30,"portBattleStartTime":0,"portBattleType":"Small","nonCapturable":false,"conquestMarksPension":1},{"id":360,"name":"Water Bay","coordinates":{"x":4050,"y":1988},"angle":null,"textAnchor":"end","region":"Bahamas","countyCapitalName":"West End","county":"Grand Bahama","countyCapital":false,"shallow":true,"availableForAll":false,"brLimit":900,"portPoints":30,"portBattleStartTime":0,"portBattleType":"Small","nonCapturable":false,"conquestMarksPension":1},{"id":361,"name":"Crown Haven","coordinates":{"x":4186,"y":1853},"angle":null,"textAnchor":"end","region":"Bahamas","countyCapitalName":"Marsh Harbour","county":"Abaco","countyCapital":false,"shallow":true,"availableForAll":false,"brLimit":900,"portPoints":30,"portBattleStartTime":0,"portBattleType":"Small","nonCapturable":false,"conquestMarksPension":1},{"id":362,"name":"Little Isaac Rocks","coordinates":{"x":4067,"y":2149},"angle":null,"textAnchor":"end","region":"Bahamas","countyCapitalName":"Morgan's Bluff","county":"Andros","countyCapital":false,"shallow":true,"availableForAll":false,"brLimit":900,"portPoints":30,"portBattleStartTime":0,"portBattleType":"Small","nonCapturable":false,"conquestMarksPension":1},{"id":363,"name":"La Desconocida","coordinates":{"x":4294,"y":2155},"angle":null,"textAnchor":"end","region":"Bahamas","countyCapitalName":"Marsh Harbour","county":"Abaco","countyCapital":false,"shallow":true,"availableForAll":false,"brLimit":900,"portPoints":30,"portBattleStartTime":0,"portBattleType":"Small","nonCapturable":false,"conquestMarksPension":1},{"id":364,"name":"William’s Bay","coordinates":{"x":4074,"y":2370},"angle":null,"textAnchor":"end","region":"Bahamas","countyCapitalName":"Morgan's Bluff","county":"Andros","countyCapital":false,"shallow":true,"availableForAll":false,"brLimit":900,"portPoints":30,"portBattleStartTime":0,"portBattleType":"Small","nonCapturable":false,"conquestMarksPension":1},{"id":365,"name":"Alabaster Rocks","coordinates":{"x":4503,"y":2328},"angle":null,"textAnchor":"end","region":"Bahamas","countyCapitalName":"Nassau","county":"New Providence","countyCapital":false,"shallow":true,"availableForAll":false,"brLimit":900,"portPoints":30,"portBattleStartTime":0,"portBattleType":"Small","nonCapturable":false,"conquestMarksPension":1},{"id":366,"name":"Shroud Cay","coordinates":{"x":4395,"y":2494},"angle":null,"textAnchor":"end","region":"Bahamas","countyCapitalName":"","county":"","countyCapital":false,"shallow":true,"availableForAll":false,"brLimit":900,"portPoints":30,"portBattleStartTime":0,"portBattleType":"Small","nonCapturable":true,"conquestMarksPension":1},{"id":367,"name":"Green Cay","coordinates":{"x":4265,"y":2429},"angle":null,"textAnchor":"end","region":"Bahamas","countyCapitalName":"Nassau","county":"New Providence","countyCapital":false,"shallow":true,"availableForAll":false,"brLimit":900,"portPoints":30,"portBattleStartTime":8,"portBattleType":"Small","nonCapturable":false,"conquestMarksPension":1},{"id":368,"name":"Ocean Bight","coordinates":{"x":5128,"y":3201},"angle":null,"textAnchor":"end","region":"Bahamas","countyCapitalName":"Mortimer Town","county":"Inagua","countyCapital":false,"shallow":false,"availableForAll":false,"brLimit":5700,"portPoints":30,"portBattleStartTime":0,"portBattleType":"Medium","nonCapturable":true,"conquestMarksPension":1},{"id":369,"name":"Plymouth","coordinates":{"x":7680,"y":4290},"angle":null,"textAnchor":"end","region":"Upper Antilles","countyCapitalName":"Saint John's","county":"Leeward Islands","countyCapital":false,"shallow":false,"availableForAll":false,"brLimit":5700,"portPoints":30,"portBattleStartTime":8,"portBattleType":"Medium","nonCapturable":false,"conquestMarksPension":1},{"id":370,"name":"Island Harbour","coordinates":{"x":7533,"y":3885},"angle":null,"textAnchor":"end","region":"Upper Antilles","countyCapitalName":"Spanish Town","county":"Virgin Islands","countyCapital":false,"shallow":false,"availableForAll":false,"brLimit":10600,"portPoints":40,"portBattleStartTime":0,"portBattleType":"Medium","nonCapturable":false,"conquestMarksPension":1},{"id":371,"name":"Sandy Hill","coordinates":{"x":7538,"y":3912},"angle":null,"textAnchor":"end","region":"Upper Antilles","countyCapitalName":"Spanish Town","county":"Virgin Islands","countyCapital":false,"shallow":false,"availableForAll":false,"brLimit":5700,"portPoints":30,"portBattleStartTime":0,"portBattleType":"Medium","nonCapturable":false,"conquestMarksPension":1},{"id":372,"name":"Cul-de-Sac","coordinates":{"x":7568,"y":4034},"angle":null,"textAnchor":"end","region":"Upper Antilles","countyCapitalName":"Gustavia","county":"Gustavia","countyCapital":false,"shallow":false,"availableForAll":false,"brLimit":5700,"portPoints":30,"portBattleStartTime":0,"portBattleType":"Medium","nonCapturable":true,"conquestMarksPension":1},{"id":373,"name":"La Moussette","coordinates":{"x":7990,"y":4943},"angle":null,"textAnchor":"end","region":"Lower Antilles","countyCapitalName":"Castries","county":"Sainte-Lucie","countyCapital":false,"shallow":false,"availableForAll":false,"brLimit":5700,"portPoints":30,"portBattleStartTime":0,"portBattleType":"Medium","nonCapturable":true,"conquestMarksPension":1},{"id":374,"name":"Guacata","coordinates":{"x":3559,"y":2040},"angle":null,"textAnchor":"end","region":"Gulf","countyCapitalName":"Gasparilla","county":"Costa de los Calos","countyCapital":false,"shallow":true,"availableForAll":false,"brLimit":900,"portPoints":30,"portBattleStartTime":0,"portBattleType":"Small","nonCapturable":false,"conquestMarksPension":1},{"id":375,"name":"All Saints","coordinates":{"x":3934,"y":267},"angle":null,"textAnchor":"end","region":"Atlantic Coast","countyCapitalName":"Charleston","county":"South Carolina","countyCapital":false,"shallow":false,"availableForAll":false,"brLimit":5700,"portPoints":30,"portBattleStartTime":0,"portBattleType":"Medium","nonCapturable":true,"conquestMarksPension":1},{"id":376,"name":"Wantlands Ferry","coordinates":{"x":4246,"y":62},"angle":null,"textAnchor":"end","region":"Atlantic Coast","countyCapitalName":"Wilmington","county":"North Carolina","countyCapital":false,"shallow":false,"availableForAll":false,"brLimit":5700,"portPoints":30,"portBattleStartTime":0,"portBattleType":"Medium","nonCapturable":true,"conquestMarksPension":1},{"id":377,"name":"Rum Cove","coordinates":{"x":5694,"y":1086},"angle":null,"textAnchor":"end","region":"Atlantic","countyCapitalName":"Kidd's Harbour","county":"Kidd’s Island","countyCapital":false,"shallow":true,"availableForAll":false,"brLimit":900,"portPoints":30,"portBattleStartTime":0,"portBattleType":"Small","nonCapturable":false,"conquestMarksPension":1},{"id":379,"name":"Salinas","coordinates":{"x":1315,"y":3380},"angle":null,"textAnchor":"end","region":"Yucatan","countyCapitalName":"Campeche","county":"Campeche","countyCapital":false,"shallow":false,"availableForAll":false,"brLimit":5700,"portPoints":30,"portBattleStartTime":0,"portBattleType":"Medium","nonCapturable":false,"conquestMarksPension":1},{"id":380,"name":"Tordo","coordinates":{"x":86,"y":2884},"angle":null,"textAnchor":"end","region":"Gulf","countyCapitalName":"Soto La Marina","county":"Nuevo Santander","countyCapital":false,"shallow":false,"availableForAll":false,"brLimit":5700,"portPoints":30,"portBattleStartTime":0,"portBattleType":"Medium","nonCapturable":false,"conquestMarksPension":1},{"id":381,"name":"Little River","coordinates":{"x":4029,"y":205},"angle":null,"textAnchor":"end","region":"Atlantic Coast","countyCapitalName":"Wilmington","county":"North Carolina","countyCapital":false,"shallow":false,"availableForAll":false,"brLimit":5700,"portPoints":30,"portBattleStartTime":0,"portBattleType":"Medium","nonCapturable":true,"conquestMarksPension":1}]